seccion,manzana,parcela,partida,calle_nombre,calle_altura,vencimiento_certificado,direccion,lat,lon,epsg
21,2,9,429255.0,"ALVAREZ, JULIAN",2531,2019-03-12,"ALVAREZ, JULIAN 2531",-34.586111,-58.413591,4326
79,89,22,260164.0,"LAMARCA, EMILIO",1014,2019-03-30,"LAMARCA, EMILIO 1014",-34.622146,-58.482847,4326
17,14,27,173288.0,SARMIENTO,4579,2019-05-03,SARMIENTO 4579,Sin dato,Sin dato,Sin dato
42,16,1,140186.0,DIRECTORIO AV.,1706,2019-06-10,DIRECTORIO AV. 1706,-34.630757,-58.451690,4326
11,65,6,442215.0,ALVEAR AV.,1974,2019-06-16,ALVEAR AV. 1974,-34.587221,-58.389945,4326
11,50,8,442338.0,LAS HERAS GENERAL AV.,2062,2019-07-01,LAS HERAS GENERAL AV. 2062,-34.589685,-58.394598,4326
87,020A,16,286628.0,NOGOYA,5138,2019-07-18,NOGOYA 5138,-34.617725,-58.515709,4326
22,23,29,181631.0,PAVON,2361,2019-07-18,PAVON 2361,-34.627024,-58.398147,4326
2,12,12,216001.0,PIEDRAS,534,2019-07-25,PIEDRAS 534,-34.614353,-58.377488,4326
2,29,12,215605.0,CHILE,577,2019-07-25,CHILE 577,-34.616040,-58.374166,4326
65,16,1,137448.0,ARGERICH,698,2019-07-31,ARGERICH 698,-34.624762,-58.474187,4326
3,56,005G,453032.0,SAN MARTIN,1109,2019-07-31,SAN MARTIN 1109,-34.594927,-58.374376,4326
3,54,30,450128.0,RECONQUISTA,962,2019-08-01,RECONQUISTA 962,-34.596722,-58.373097,4326
3,30,11,450536.0,SUIPACHA,1183,2019-08-08,SUIPACHA 1183,-34.594299,-58.379932,4326
3,19,6,450627.0,PARAGUAY,956,2019-08-08,PARAGUAY 956,-34.597813,-58.380609,4326
4,17,24,210907.0,"CALVO, CARLOS",659,2019-08-09,"CALVO, CARLOS 659",-34.619652,-58.375209,4326
22,60,30,180311.0,"CALVO, CARLOS",1901,2019-08-12,"CALVO, CARLOS 1901",-34.620433,-58.393327,4326
3,54,025A,450102.0,RECONQUISTA,906,2019-08-15,RECONQUISTA 906,-34.597193,-58.373030,4326
9,48,024A,207857.0,TUCUMAN,2247,2019-08-26,TUCUMAN 2247,-34.602177,-58.399229,4326
15,106,24,443372.0,ARENALES,2871,2019-08-26,ARENALES 2871,-34.591175,-58.405762,4326
19,143,2,428511.0,CHARCAS,4514,2019-09-06,CHARCAS 4514,-34.582266,-58.425112,4326
11,61,26,442137.0,"LOPEZ, VICENTE",1933,2019-09-06,"LOPEZ, VICENTE 1933",Sin dato,Sin dato,Sin dato
45,75,11,175567.0,HIDALGO,873,2019-09-12,HIDALGO 873,-34.609359,-58.441248,4326
42,9,16,140076.0,CARABOBO AV.,144,2019-09-24,CARABOBO AV. 144,-34.628571,-58.455704,4326
33,65,19,402228.0,OLLEROS,3651,2019-09-25,OLLEROS 3651,-34.582471,-58.451009,4326
65,110C,16,134229.0,GRANADEROS,174,2019-09-27,GRANADEROS 174,-34.625657,-58.459886,4326
25,15,010A,335345.0,ARCOS,1816,2019-09-30,ARCOS 1816,-34.563066,-58.451584,4326
16,53,007A,112364.0,"GARAY, JUAN DE AV.",1264,2019-10-04,"GARAY, JUAN DE AV. 1264",-34.627066,-58.383797,4326
20,3,32,202346.0,SAAVEDRA,483,2019-10-08,SAAVEDRA 483,-34.615283,-58.402958,4326
41,86,017A,371672.0,MONROE,3045,2019-10-25,MONROE 3045,-34.561751,-58.465861,4326
4,16,27,210946.0,HUMBERTO 1°,639,2019-12-07,HUMBERTO 1° 639,-34.620754,-58.374927,4326
15,104,029A,447193.0,CHARCAS,2955,2019-12-10,CHARCAS 2955,-34.593275,-58.407861,4326
71,5,17,256337.0,"GUTIERREZ, RICARDO",3193,2019-12-16,"GUTIERREZ, RICARDO 3193",-34.601187,-58.495252,4326
15,92,18,445676.0,"PACHECO DE MELO, JOSE ANDRES",2665,2019-12-23,"PACHECO DE MELO, JOSE ANDRES 2665",-34.586671,-58.401496,4326
8,33,16,111054.0,BRASIL,819,2020-01-16,BRASIL 819,-34.626352,-58.376497,4326
65,47,4,136384.0,"VALLESE, FELIPE",2730,2020-01-16,"VALLESE, FELIPE 2730",-34.622517,-58.470734,4326
49,32,009C,311837.0,DONADO,882,2020-01-16,DONADO 882,-34.585525,-58.470912,4326
74,140,17,12925.0,PIZARRO,6052,2020-01-16,PIZARRO 6052,-34.648236,-58.506997,4326
27,84,23,338094.0,MONTAÑESES,3010,2020-01-16,MONTAÑESES 3010,-34.549077,-58.456375,4326
19,104,001H,426131.0,ARAOZ,1942,2020-01-16,ARAOZ 1942,Sin dato,Sin dato,Sin dato
19,122,13,428493.0,PARAGUAY,4688,2020-01-16,PARAGUAY 4688,-34.583198,-58.426247,4326
12,7,20,218292.0,ENTRE RIOS AV.,196,2020-01-16,ENTRE RIOS AV. 196,-34.611348,-58.391710,4326
41,142,5,327618.0,"RIVERA, PEDRO I., Dr.",2576,2020-01-16,"RIVERA, PEDRO I., Dr. 2576",-34.557782,-58.462716,4326
21,34,008C,429653.0,"SCALABRINI ORTIZ, RAUL",2890,2020-01-16,"SCALABRINI ORTIZ, RAUL 2890",-34.582708,-58.412276,4326
22,68,4,180047.0,ESTADOS UNIDOS,1828,2020-01-16,ESTADOS UNIDOS 1828,-34.619190,-58.392221,4326
17,101,027D,170096.0,BULNES,210,2020-01-16,BULNES 210,-34.608261,-58.418811,4326
7,18,14,452272.0,ARENALES,1662,2020-01-16,ARENALES 1662,-34.595016,-58.391324,4326
7,18,039A,452250.0,SANTA FE AV.,1637,2020-01-16,SANTA FE AV. 1637,-34.595731,-58.390701,4326
65,63,9,135611.0,ESTADO PLURINACIONAL DE BOLIVIA,387,2020-01-16,ESTADO PLURINACIONAL DE BOLIVIA 387,-34.626344,-58.466931,4326
17,55,47,171712.0,GASCON,254,2020-01-16,GASCON 254,-34.609414,-58.424670,4326
2,2,028A,216258.0,CHILE,801,2020-01-16,CHILE 801,-34.616282,-58.377894,4326
72,14,43,21458.0,"SUAREZ, JOSE LEON",219,2020-01-16,"SUAREZ, JOSE LEON 219",-34.641948,-58.527536,4326
15,133,4,441340.0,"MANSILLA, LUCIO NORBERTO, GENERAL",2554,2020-01-16,"MANSILLA, LUCIO NORBERTO, GENERAL 2554",-34.596302,-58.403889,4326
22,36,29,181095.0,"CALVO, CARLOS",2255,2020-01-16,"CALVO, CARLOS 2255",-34.620721,-58.397855,4326
54,81,001A,91870.0,"CARRERAS, SANTIAGO de las",27,2020-01-16,"CARRERAS, SANTIAGO de las 27",-34.635991,-58.489389,4326
28,37,2,193947.0,BELGRANO AV.,3168,2020-01-16,BELGRANO AV. 3168,-34.615392,-58.410688,4326
72,139,9,13111.0,"BOSCH, VENTURA",6370,2020-01-16,"BOSCH, VENTURA 6370",-34.642247,-58.516332,4326
7,18,037A,452252.0,SANTA FE AV.,1651,2020-01-16,SANTA FE AV. 1651,-34.595736,-58.390939,4326
65,30,6,137243.0,GAONA AV.,3542,2020-01-16,GAONA AV. 3542,-34.620954,-58.474875,4326
43,30,8,368922.0,MELIAN AV.,3685,2020-01-16,MELIAN AV. 3685,-34.554412,-58.480340,4326
48,43,004A,148573.0,LAFUENTE AV.,809,2020-01-16,LAFUENTE AV. 809,-34.640156,-58.463895,4326
41,134,023C,377280.0,CONGRESO AV.,2641,2020-01-16,CONGRESO AV. 2641,-34.556552,-58.464773,4326
36,138,11,150011.0,COLOMBRES,48,2020-01-17,COLOMBRES 48,-34.612040,-58.419360,4326
7,24,15,452451.0,"QUINTANA, MANUEL, PRES.",263,2020-01-17,"QUINTANA, MANUEL, PRES. 263",-34.590242,-58.387526,4326
17,49,32,172331.0,HUMAHUACA,4317,2020-01-17,HUMAHUACA 4317,-34.601382,-58.425735,4326
22,60,5,180285.0,ESTADOS UNIDOS,1936,2020-01-17,ESTADOS UNIDOS 1936,-34.619547,-58.393716,4326
9,47,20,206234.0,LAVALLE,2285,2020-01-17,LAVALLE 2285,-34.603297,-58.399350,4326
37,062B,20,409334.0,DE LOS INCAS AV.,3438,2020-01-17,DE LOS INCAS AV. 3438,-34.573727,-58.461728,4326
48,24,005A,149972.0,"FALCON, RAMON L.,CNEL.",3065,2020-01-17,"FALCON, RAMON L.,CNEL. 3065",-34.632762,-58.471383,4326
30,85,28,182816.0,"CALVO, CARLOS",2861,2020-01-17,"CALVO, CARLOS 2861",-34.621649,-58.405525,4326
13,15,27,192376.0,BILLINGHURST,308,2020-01-17,BILLINGHURST 308,-34.606782,-58.416318,4326
22,5,19,182103.0,ALBERTI,1275,2020-01-17,ALBERTI 1275,-34.624508,-58.400373,4326
35,112,37,402952.0,HUMBOLDT,2344,2020-01-17,HUMBOLDT 2344,-34.579758,-58.429608,4326
7,41,027B,451591.0,SANTA FE AV.,1335,2020-01-17,SANTA FE AV. 1335,-34.595620,-58.386343,4326
65,93,16,135205.0,PAEZ,2415,2020-01-17,PAEZ 2415,-34.620040,-58.466882,4326
79,133,21,258977.0,"GARCIA, JUAN AGUSTIN",3399,2020-01-17,"GARCIA, JUAN AGUSTIN 3399",-34.613478,-58.488155,4326
15,147,1,445258.0,"GELLY Y OBES, GRAL. AV.",2294,2020-01-17,"GELLY Y OBES, GRAL. AV. 2294",-34.585561,-58.396729,4326
19,14,2,426289.0,GORRITI,4640,2020-01-17,GORRITI 4640,-34.591878,-58.427434,4326
48,114C,16,142393.0,CRANWELL,586,2020-01-17,CRANWELL 586,-34.635594,-58.458599,4326
79,139,30,258246.0,"DIAZ, CESAR, GRAL.",3253,2020-01-17,"DIAZ, CESAR, GRAL. 3253",-34.616716,-58.483492,4326
30,63,6,183633.0,SAN JUAN AV.,3046,2020-01-17,SAN JUAN AV. 3046,-34.624575,-58.407954,4326
65,37,1,136727.0,"VALLESE, FELIPE",2802,2020-01-17,"VALLESE, FELIPE 2802",-34.622854,-58.471807,4326
87,032B,019A,305198.0,"SASTRE, MARCOS",5054,2020-01-17,"SASTRE, MARCOS 5054",-34.618251,-58.512561,4326
77,75,17,2246.0,SEGUROLA AV.,128,2020-01-17,SEGUROLA AV. 128,-34.632759,-58.483955,4326
43,162,2,334297.0,ARIAS,2520,2020-01-17,ARIAS 2520,-34.542767,-58.474591,4326
7,5,001A,452591.0,JUNCAL,1756,2020-01-17,JUNCAL 1756,-34.593978,-58.392283,4326
8,2,005E,117905.0,ISABEL LA CATOLICA,323,2020-01-18,ISABEL LA CATOLICA 323,-34.635423,-58.374080,4326
21,83,23,430593.0,CERVIÑO AV.,4471,2020-01-18,CERVIÑO AV. 4471,-34.575995,-58.420771,4326
71,054A,000F,310258.0,TINOGASTA,2685,2020-01-18,TINOGASTA 2685,-34.597089,-58.489914,4326
48,114C,13,142390.0,CRANWELL,568,2020-01-18,CRANWELL 568,-34.635407,-58.458800,4326
31,102,14,421409.0,"SCALABRINI ORTIZ, RAUL AV.",1203,2020-01-18,"SCALABRINI ORTIZ, RAUL AV. 1203",-34.593730,-58.429027,4326
13,92,005A,195517.0,TUCUMAN,2842,2020-01-18,TUCUMAN 2842,-34.601720,-58.406462,4326
48,122,016C,458175.0,DIRECTORIO AV.,2241,2020-01-18,DIRECTORIO AV. 2241,-34.632683,-58.458369,4326
2,18,7,215885.0,PIEDRAS,30,2020-01-18,PIEDRAS 30,-34.608616,-58.377760,4326
37,118A,018B,410723.0,CRAMER AV.,1764,2020-01-18,CRAMER AV. 1764,-34.568068,-58.458575,4326
48,96,6,143282.0,"BONIFACIO, JOSE",2576,2020-01-18,"BONIFACIO, JOSE 2576",-34.633144,-58.463539,4326
23,114,23,413481.0,"GARCIA, TEODORO",1733,2020-01-18,"GARCIA, TEODORO 1733",-34.563299,-58.440146,4326
39,7,2,326685.0,MONROE,3766,2020-01-18,MONROE 3766,-34.566501,-58.472868,4326
22,22,12,181660.0,PAVON,2378,2020-01-18,PAVON 2378,-34.627160,-58.398365,4326
19,148,17,424967.0,CHARCAS,3631,2020-01-18,CHARCAS 3631,-34.588694,-58.416298,4326
30,57,28,183757.0,"GARAY, JUAN DE AV.",3081,2020-01-18,"GARAY, JUAN DE AV. 3081",-34.629394,-58.408087,4326
48,144,24,140944.0,LAUTARO,139,2020-01-18,LAUTARO 139,-34.628958,-58.456942,4326
15,106,14,443382.0,AGUERO,1791,2020-01-18,AGUERO 1791,-34.590506,-58.405534,4326
15,32,14,446439.0,BILLINGHURST,2534,2020-01-18,BILLINGHURST 2534,-34.582911,-58.403627,4326
39,86,10,326624.0,OLAZABAL,2649,2020-01-18,OLAZABAL 2649,-34.561550,-58.460717,4326
45,150,16,173946.0,DIAZ VELEZ AV.,4569,2020-01-18,DIAZ VELEZ AV. 4569,-34.608656,-58.431714,4326
48,100C,6,143157.0,PEDERNERA,1030,2020-01-18,PEDERNERA 1030,-34.639911,-58.456383,4326
49,133,17,238701.0,TRIUNVIRATO AV.,2883,2020-01-18,TRIUNVIRATO AV. 2883,-34.585015,-58.463138,4326
8,52,021A,118194.0,"GARCIA, MARTIN AV.",417,2020-01-18,"GARCIA, MARTIN AV. 417",-34.629768,-58.371073,4326
48,112F,6,142564.0,ROBERTSON,740,2020-01-18,ROBERTSON 740,-34.637247,-58.457330,4326
19,103,15,425754.0,SOLER,4263,2020-01-18,SOLER 4263,-34.589790,-58.420885,4326
1,37,002B,220371.0,LAVALLE,416,2020-01-18,LAVALLE 416,Sin dato,Sin dato,Sin dato
36,12,32,160976.0,MUÑIZ,469,2020-01-18,MUÑIZ 469,-34.618935,-58.427227,4326
48,113G,6,142513.0,ROBERTSON,640,2020-01-18,ROBERTSON 640,-34.636463,-58.458155,4326
54,042A,20,25820.0,MORETO,629,2020-01-18,MORETO 629,-34.643443,-58.488065,4326
81,147,28,264015.0,CAMPANA,2450,2020-01-18,CAMPANA 2450,-34.608144,-58.491610,4326
35,85,27,402873.0,HUMBOLDT,2160,2020-01-19,HUMBOLDT 2160,-34.581339,-58.431423,4326
4,32,26,210388.0,COCHABAMBA,373,2020-01-19,COCHABAMBA 373,-34.622990,-58.370928,4326
25,70,014B,376792.0,DEL LIBERTADOR AV.,6037,2020-01-19,DEL LIBERTADOR AV. 6037,-34.556281,-58.447874,4326
48,122,23,141624.0,"BONORINO, ESTEBAN, Cnel. AV.",349,2020-01-19,"BONORINO, ESTEBAN, Cnel. AV. 349",-34.632019,-58.458019,4326
65,30,12,137237.0,GAONA AV.,3576,2020-01-19,GAONA AV. 3576,-34.621205,-58.475355,4326
48,114D,24,142435.0,CRANWELL,579,2020-01-19,CRANWELL 579,-34.635571,-58.458724,4326
30,73,9,183338.0,SAN JUAN AV.,2937,2020-01-19,SAN JUAN AV. 2937,-34.624210,-58.406349,4326
65,93,3,135218.0,NEUQUEN,2430,2020-01-19,NEUQUEN 2430,-34.619202,-58.467498,4326
35,100,17,403317.0,BONPLAND,2245,2020-01-19,BONPLAND 2245,-34.579199,-58.432504,4326
48,100C,10,143161.0,PEDERNERA,1056,2020-01-19,PEDERNERA 1056,-34.640131,-58.456113,4326
37,143,5,410211.0,AMENABAR,1243,2020-01-19,AMENABAR 1243,-34.569719,-58.451018,4326
8,35,1,110990.0,CASEROS AV.,602,2020-01-19,CASEROS AV. 602,-34.626895,-58.373994,4326
48,132,26,141305.0,"BONORINO, ESTEBAN, Cnel. AV.",394,2020-01-19,"BONORINO, ESTEBAN, Cnel. AV. 394",-34.632494,-58.457750,4326
45,145,20,173805.0,AVELLANEDA,77,2020-01-19,AVELLANEDA 77,-34.611278,-58.431288,4326
37,92,5,409447.0,DE LOS INCAS AV.,3128,2020-01-19,DE LOS INCAS AV. 3128,-34.570973,-58.458896,4326
48,115,11,142274.0,DIRECTORIO AV.,2360,2020-01-19,DIRECTORIO AV. 2360,-34.633390,-58.460116,4326
36,11,18,154319.0,LA PLATA AV.,476,2020-01-19,LA PLATA AV. 476,-34.620298,-58.428042,4326
17,48,28,172325.0,ESTADO DE PALESTINA,748,2020-01-19,ESTADO DE PALESTINA 748,-34.601967,-58.425591,4326
7,12,017B,452943.0,CALLAO AV.,2001,2020-01-20,CALLAO AV. 2001,-34.587474,-58.386867,4326
1,11,29,220867.0,MAIPU,216,2020-01-20,MAIPU 216,-34.605591,-58.376585,4326
34,062B,21,107072.0,CACHI,440,2020-01-20,CACHI 440,Sin dato,Sin dato,Sin dato
22,31,45,181321.0,PASCO,1425,2020-01-20,PASCO 1425,-34.626006,-58.395716,4326
37,81,004A,409561.0,"FREIRE, RAMON, CAP. GRAL.",1668,2020-01-20,"FREIRE, RAMON, CAP. GRAL. 1668",-34.570894,-58.460615,4326
11,63,021A,442176.0,GUIDO,1923,2020-01-20,GUIDO 1923,-34.588946,-58.391208,4326
13,91,018B,195963.0,ECUADOR,531,2020-01-20,ECUADOR 531,-34.603802,-58.407619,4326
11,86,36,441993.0,CALLAO AV.,2024,2020-01-20,CALLAO AV. 2024,-34.587273,-58.386872,4326
11,8,022A,442713.0,PUEYRREDON AV.,1733,2020-01-20,PUEYRREDON AV. 1733,Sin dato,Sin dato,Sin dato
11,78,7,440107.0,ARENALES,1845,2020-01-20,ARENALES 1845,-34.594734,-58.393918,4326
25,86,001C,368217.0,BLANCO ENCALADA,1204,2020-01-20,BLANCO ENCALADA 1204,-34.552028,-58.446894,4326
8,35,005A,117823.0,CASEROS AV.,716,2020-01-21,CASEROS AV. 716,-34.626964,-58.374661,4326
39,92,008B,370626.0,AMENABAR,2209,2020-01-21,AMENABAR 2209,-34.562054,-58.459450,4326
35,82,49,405821.0,AMENABAR,459,2020-01-21,AMENABAR 459,-34.574084,-58.443728,4326
48,153,35,140717.0,CARABOBO AV.,217,2020-01-21,CARABOBO AV. 217,-34.629567,-58.455440,4326
65,120A,35,134082.0,FRAY LUIS BELTRAN,78,2020-01-21,FRAY LUIS BELTRAN 78,-34.626334,-58.458305,4326
37,142,015A,416655.0,CESPEDES,2531,2020-01-21,CESPEDES 2531,-34.570002,-58.449539,4326
17,064A,55,170768.0,RIVADAVIA AV.,3949,2020-01-21,RIVADAVIA AV. 3949,-34.611709,-58.421767,4326
35,44,15,402735.0,FITZ ROY,1839,2020-01-21,FITZ ROY 1839,-34.583095,-58.435020,4326
8,18,6,111459.0,"JOVELLANOS, GASPAR M. de",328,2020-01-21,"JOVELLANOS, GASPAR M. de 328",-34.634452,-58.373130,4326
12,71,17,216477.0,"IRIGOYEN, BERNARDO de",678,2020-01-21,"IRIGOYEN, BERNARDO de 678",-34.616043,-58.380281,4326
31,98,2,420457.0,LAVALLEJA,1291,2020-01-21,LAVALLEJA 1291,-34.595115,-58.425584,4326
28,42,3,198799.0,MEXICO,3044,2020-01-21,MEXICO 3044,-34.618492,-58.408564,4326
22,35,42,181149.0,PASCO,1011,2020-01-21,PASCO 1011,-34.620900,-58.397108,4326
36,6,025A,162063.0,MUÑIZ,1089,2020-01-21,MUÑIZ 1089,-34.626601,-58.425676,4326
48,110A,13,141989.0,ESPARTACO,962,2020-01-22,ESPARTACO 962,-34.638429,-58.454299,4326
36,46,10,153128.0,RIVADAVIA AV.,4296,2020-01-22,RIVADAVIA AV. 4296,-34.613763,-58.426021,4326
79,005D,14,306306.0,"DIAZ, CESAR, GRAL.",4387,2020-01-22,"DIAZ, CESAR, GRAL. 4387",-34.624640,-58.493798,4326
19,125,4,424219.0,"MANSILLA, LUCIO NORBERTO, GENERAL",3682,2020-01-22,"MANSILLA, LUCIO NORBERTO, GENERAL 3682",-34.590762,-58.415126,4326
15,8,26,444813.0,"DIAZ, CNEL. AV.",1520,2020-01-22,"DIAZ, CNEL. AV. 1520",-34.592805,-58.413393,4326
40,72,11,157179.0,FORMOSA,578,2020-01-22,FORMOSA 578,-34.621470,-58.436382,4326
34,10,012D,910412.0,SAENZ AV.,914,2020-01-22,SAENZ AV. 914,Sin dato,Sin dato,Sin dato
19,89,2,426467.0,SOLER,4422,2020-01-22,SOLER 4422,-34.588896,-58.422535,4326
39,9,17,325268.0,"SUCRE, ANTONIO JOSE de, Mcal.",3601,2020-01-22,"SUCRE, ANTONIO JOSE de, Mcal. 3601",-34.570967,-58.467100,4326
40,33,13,158351.0,THOMPSON,618,2020-01-22,THOMPSON 618,-34.626645,-58.438993,4326
37,130,28,410023.0,AMENABAR,1084,2020-01-22,AMENABAR 1084,-34.570626,-58.449554,4326
39,30,002F,374212.0,"SUCRE, ANTONIO JOSE de, Mcal.",3366,2020-01-22,"SUCRE, ANTONIO JOSE de, Mcal. 3366",-34.569545,-58.464469,4326
57,30,019C,132842.0,"VALLESE, FELIPE",1719,2020-01-22,"VALLESE, FELIPE 1719",-34.617607,-58.458109,4326
23,10,004A,414408.0,MAURE,2334,2020-01-22,MAURE 2334,-34.570960,-58.441195,4326
48,127,25,141455.0,CAMACUA,845,2020-01-22,CAMACUA 845,-34.636734,-58.454421,4326
31,40,5,421573.0,LOYOLA,448,2020-01-22,LOYOLA 448,-34.596675,-58.434927,4326
35,115,8,402554.0,HUMBOLDT,2481,2020-01-22,HUMBOLDT 2481,-34.578306,-58.427780,4326
28,24,42,195818.0,SANCHEZ DE LORIA,115,2020-01-22,SANCHEZ DE LORIA 115,-34.611767,-58.413965,4326
5,036A,003A,224003.0,"PERON, JUAN DOMINGO, TTE. GENERAL",1374,2020-01-22,"PERON, JUAN DOMINGO, TTE. GENERAL 1374",-34.606445,-58.386037,4326
19,017B,001A,427486.0,GORRITI,4908,2020-01-22,GORRITI 4908,-34.589939,-58.430452,4326
31,61,14,420623.0,CASTILLO,177,2020-01-22,CASTILLO 177,-34.598171,-58.431644,4326
12,70,023B,216518.0,TACUARI,739,2020-01-22,TACUARI 739,-34.616935,-58.378851,4326
38,196,1,38278.0,RONDEAU,3708,2020-01-22,RONDEAU 3708,-34.637262,-58.417741,4326
35,48,4,404455.0,COSTA RICA,5930,2020-01-22,COSTA RICA 5930,-34.580085,-58.438069,4326
48,8,001B,146369.0,"MARTI, JOSE",415,2020-01-22,"MARTI, JOSE 415",-34.636591,-58.470140,4326
19,32,20,426718.0,ARMENIA,1535,2020-01-22,ARMENIA 1535,-34.590524,-58.428842,4326
47,172,20,295523.0,CORRIENTES AV.,5248,2020-01-22,CORRIENTES AV. 5248,-34.599573,-58.439254,4326
15,71,32,445935.0,BOLLINI,2282,2020-01-22,BOLLINI 2282,-34.586159,-58.403018,4326
61,195,19,244399.0,TRIUNVIRATO AV.,3942,2020-01-22,TRIUNVIRATO AV. 3942,-34.579823,-58.476395,4326
11,80,12,441834.0,AYACUCHO,1577,2020-01-22,AYACUCHO 1577,-34.591183,-58.393139,4326
47,158,003A,305361.0,"JUSTO, JUAN B. AV.",2726,2020-01-22,"JUSTO, JUAN B. AV. 2726",-34.595899,-58.445751,4326
30,10,013A,186031.0,BOEDO AV.,722,2020-01-22,BOEDO AV. 722,-34.621430,-58.416391,4326
11,13,027A,447577.0,CORDOBA AV.,2475,2020-01-22,CORDOBA AV. 2475,-34.599130,-58.402272,4326
17,89,5,170487.0,INCA,3846,2020-01-23,INCA 3846,Sin dato,Sin dato,Sin dato
41,12,20,326988.0,MELIAN AV.,2542,2020-01-23,MELIAN AV. 2542,-34.565099,-58.471804,4326
39,8,7,325028.0,WASHINGTON,1821,2020-01-23,WASHINGTON 1821,-34.572146,-58.467245,4326
15,100,005D,447136.0,"CABRERA, JOSE A.",3046,2020-01-23,"CABRERA, JOSE A. 3046",-34.597005,-58.409546,4326
65,30,23,137226.0,NEUQUEN,2945,2020-01-23,NEUQUEN 2945,-34.621372,-58.474628,4326
22,22,043A,181693.0,PICHINCHA,1547,2020-01-23,PICHINCHA 1547,-34.627441,-58.397032,4326
22,44,34,180803.0,RINCON,983,2020-01-23,RINCON 983,-34.620358,-58.395894,4326
48,114A,13,142328.0,CIPOLLETTI,554,2020-01-23,CIPOLLETTI 554,-34.634893,-58.458486,4326
22,22,44,181694.0,PICHINCHA,1527,2020-01-23,PICHINCHA 1527,-34.627364,-58.397045,4326
77,42,20,5224.0,RIVADAVIA AV.,8867,2020-01-23,RIVADAVIA AV. 8867,-34.635371,-58.488919,4326
12,46,30,217078.0,MORENO,1223,2020-01-23,MORENO 1223,Sin dato,Sin dato,Sin dato
49,55,3,241200.0,ALVAREZ THOMAS AV.,2226,2020-01-23,ALVAREZ THOMAS AV. 2226,-34.577978,-58.472514,4326
22,67,7,180091.0,"CALVO, CARLOS",1852,2020-01-23,"CALVO, CARLOS 1852",-34.620314,-58.392459,4326
15,8,1,444808.0,"DIAZ, CNEL. AV.",1596,2020-01-23,"DIAZ, CNEL. AV. 1596",-34.592395,-58.413042,4326
47,022A,18,229691.0,BATALLA DEL PARI,661,2020-01-23,BATALLA DEL PARI 661,-34.600645,-58.454137,4326
39,86,002D,326607.0,BLANCO ENCALADA,2664,2020-01-23,BLANCO ENCALADA 2664,-34.560721,-58.461543,4326
48,100C,9,143160.0,PEDERNERA,1050,2020-01-23,PEDERNERA 1050,-34.640076,-58.456181,4326
67,29,009D,296457.0,"BELAUSTEGUI, LUIS, Dr.",2998,2020-01-23,"BELAUSTEGUI, LUIS, Dr. 2998",-34.617086,-58.478561,4326
48,74,31,144009.0,CULPINA,880,2020-01-23,CULPINA 880,-34.639261,-58.461166,4326
65,36,001M,136685.0,NAZCA AV.,677,2020-01-23,NAZCA AV. 677,-34.624411,-58.472344,4326
8,74,019A,110020.0,BRASIL AV.,351,2020-01-23,BRASIL AV. 351,-34.625291,-58.370560,4326
65,54,003A,149256.0,AVELLANEDA AV.,2676,2020-01-23,AVELLANEDA AV. 2676,-34.625441,-58.468332,4326
45,79,21,175182.0,RIVADAVIA AV.,4953,2020-01-23,RIVADAVIA AV. 4953,-34.617627,-58.435152,4326
22,38,4,181001.0,PAVON,2144,2020-01-23,PAVON 2144,-34.626763,-58.394925,4326
19,116,5,426525.0,PARAGUAY,4156,2020-01-23,PARAGUAY 4156,-34.587346,-58.420825,4326
19,155,016A,427764.0,"BORGES, JORGE LUIS",2337,2020-01-23,"BORGES, JORGE LUIS 2337",-34.583534,-58.422745,4326
81,13,9,277521.0,"BEIRO, FRANCISCO AV.",4318,2020-01-23,"BEIRO, FRANCISCO AV. 4318",-34.605850,-58.511622,4326
30,57,37,183766.0,"GARAY, JUAN DE AV.",3033,2020-01-23,"GARAY, JUAN DE AV. 3033",-34.629288,-58.407167,4326
5,33,029B,222333.0,URUGUAY AV.,632,2020-01-23,URUGUAY AV. 632,-34.601368,-58.386826,4326
15,71,20,445914.0,PEÑA,2939,2020-01-23,PEÑA 2939,-34.586580,-58.404006,4326
35,109,29,413865.0,"NEWBERY, JORGE",2441,2020-01-23,"NEWBERY, JORGE 2441",-34.572592,-58.441308,4326
48,56,23,144609.0,CASTAÑON,956,2020-01-23,CASTAÑON 956,-34.640868,-58.461367,4326
41,12,4,372885.0,ROOSEVELT FRANKLIN D.,3674,2020-01-24,ROOSEVELT FRANKLIN D. 3674,-34.564938,-58.473002,4326
41,12,3,372886.0,ROOSEVELT FRANKLIN D.,3670,2020-01-24,ROOSEVELT FRANKLIN D. 3670,-34.564898,-58.472935,4326
39,88,003D,325192.0,AMENABAR,1887,2020-01-24,AMENABAR 1887,-34.565198,-58.456747,4326
65,108,023B,134765.0,GAVILAN,1010,2020-01-24,GAVILAN 1010,-34.617879,-58.464963,4326
48,152,008A,140727.0,DIRECTORIO AV.,1969,2020-01-24,DIRECTORIO AV. 1969,-34.631701,-58.455294,4326
13,46,8,191104.0,"MITRE, BARTOLOME",3264,2020-01-24,"MITRE, BARTOLOME 3264",-34.609306,-58.412615,4326
49,52,43,241384.0,ALVAREZ THOMAS AV.,2332,2020-01-24,ALVAREZ THOMAS AV. 2332,-34.577570,-58.474254,4326
30,39,21,184203.0,24 DE NOVIEMBRE,1057,2020-01-24,24 DE NOVIEMBRE 1057,-34.623293,-58.410580,4326
2,15,014E,219069.0,CHACABUCO,253,2020-01-24,CHACABUCO 253,-34.611227,-58.376262,4326
35,5,15,403904.0,"RAVIGNANI, EMILIO, Dr.",1577,2020-01-24,"RAVIGNANI, EMILIO, Dr. 1577",-34.582869,-58.440593,4326
57,92,15,147694.0,AVELLANEDA AV.,1235,2020-01-24,AVELLANEDA AV. 1235,-34.618122,-58.448746,4326
22,40,24,180941.0,CONSTITUCION,2181,2020-01-24,CONSTITUCION 2181,-34.625514,-58.395410,4326
9,82,40,205222.0,CALLAO AV.,782,2020-01-24,CALLAO AV. 782,-34.599961,-58.392993,4326
39,33,004L,374144.0,MENDOZA,3358,2020-01-24,MENDOZA 3358,Sin dato,Sin dato,Sin dato
7,12,33,452805.0,RODRIGUEZ PEÑA,2082,2020-01-24,RODRIGUEZ PEÑA 2082,-34.587380,-58.385434,4326
17,83,41,171173.0,MEDRANO AV.,854,2020-01-24,MEDRANO AV. 854,-34.600036,-58.420595,4326
25,29,18,335390.0,3 DE FEBRERO,1856,2020-01-24,3 DE FEBRERO 1856,-34.561660,-58.450093,4326
30,2,009D,185520.0,BOEDO AV.,1422,2020-01-24,BOEDO AV. 1422,-34.630483,-58.415815,4326
48,32,30,145404.0,REMEDIOS,2931,2020-01-24,REMEDIOS 2931,Sin dato,Sin dato,Sin dato
1,9,19,220801.0,RIVADAVIA AV.,743,2020-01-24,RIVADAVIA AV. 743,-34.608135,-58.377031,4326
22,68,23,180066.0,COMBATE DE LOS POZOS,994,2020-01-25,COMBATE DE LOS POZOS 994,-34.620201,-58.393130,4326
11,5,12,441209.0,PUEYRREDON AV.,1445,2020-01-25,PUEYRREDON AV. 1445,Sin dato,Sin dato,Sin dato
22,44,2,180772.0,ESTADOS UNIDOS,2112,2020-01-25,ESTADOS UNIDOS 2112,-34.619605,-58.396205,4326
23,111,8,413225.0,OLLEROS AV.,1712,2020-01-25,OLLEROS AV. 1712,-34.564666,-58.437541,4326
59,72,021A,309190.0,SAN BLAS,1613,2020-01-25,SAN BLAS 1613,-34.603442,-58.465098,4326
40,130,37,155336.0,SENILLOSA,491,2020-01-25,SENILLOSA 491,-34.622076,-58.429296,4326
37,133,19,410280.0,"LORETO, Virrey",2619,2020-01-25,"LORETO, Virrey 2619",-34.569589,-58.451725,4326
11,70,35,440116.0,RIOBAMBA,904,2020-01-25,RIOBAMBA 904,-34.598556,-58.394627,4326
19,172,006F,428142.0,"BORGES, JORGE LUIS",2434,2020-01-25,"BORGES, JORGE LUIS 2434",-34.582458,-58.421581,4326
37,062A,66,409114.0,ELCANO AV.,3335,2020-01-25,ELCANO AV. 3335,-34.574640,-58.460007,4326
2,39,002D,218519.0,REPUBLICA BOLIVARIANA DE VENEZUELA,436,2020-01-25,REPUBLICA BOLIVARIANA DE VENEZUELA 436,-34.613684,-58.372377,4326
12,58,13,216745.0,LIMA,31,2020-01-25,LIMA 31,-34.608769,-58.382012,4326
3,4,008A,453054.0,ARENALES,1178,2020-01-25,ARENALES 1178,-34.594442,-58.384075,4326
31,30,9,422247.0,"RAMIREZ DE VELASCO, JUAN",779,2020-01-25,"RAMIREZ DE VELASCO, JUAN 779",-34.595904,-58.438943,4326
15,89,33,445585.0,AGUERO,1960,2020-01-25,AGUERO 1960,-34.588953,-58.403580,4326
35,110B,28,406211.0,GOROSTIAGA,2485,2020-01-25,GOROSTIAGA 2485,-34.571808,-58.443209,4326
22,19,4,181763.0,"CALVO, CARLOS",2434,2020-01-25,"CALVO, CARLOS 2434",-34.620978,-58.400254,4326
65,37,33,136735.0,TERRADA,736,2020-01-25,TERRADA 736,-34.623462,-58.471399,4326
23,122,8,413249.0,DEL LIBERTADOR AV.,4994,2020-01-25,DEL LIBERTADOR AV. 4994,-34.563851,-58.436542,4326
48,91,36,143481.0,PEDERNERA,813,2020-01-25,PEDERNERA 813,-34.638177,-58.458669,4326
87,081A,016A,299698.0,"LOZANO, PEDRO",4797,2020-01-25,"LOZANO, PEDRO 4797",-34.612417,-58.513533,4326
30,21,18,184813.0,"GARAY, JUAN DE AV.",3317,2020-01-25,"GARAY, JUAN DE AV. 3317",-34.630340,-58.412107,4326
7,40,25,451586.0,TALCAHUANO,1052,2020-01-25,TALCAHUANO 1052,-34.596414,-58.385759,4326
40,147A,18,154704.0,SENILLOSA,87,2020-01-25,SENILLOSA 87,-34.616958,-58.429753,4326
5,73,17,221397.0,"PELLEGRINI, CARLOS",645,2020-01-25,"PELLEGRINI, CARLOS 645",-34.600882,-58.381092,4326
47,132,027B,307667.0,PADILLA,408,2020-01-25,PADILLA 408,-34.601950,-58.440656,4326
15,115,17,442974.0,LAPRIDA,1139,2020-01-25,LAPRIDA 1139,-34.595738,-58.408179,4326
15,53,7,446196.0,"PACHECO DE MELO, JOSE ANDRES",2950,2020-01-25,"PACHECO DE MELO, JOSE ANDRES 2950",-34.585079,-58.404330,4326
75,13,1,363707.0,FRANCO,3006,2020-01-26,FRANCO 3006,-34.582405,-58.507949,4326
23,54,012K,415430.0,"CAMPOS, LUIS M. AV.",1562,2020-01-26,"CAMPOS, LUIS M. AV. 1562",-34.562367,-58.444339,4326
37,079A,26,409412.0,ELCANO AV.,3169,2020-01-26,ELCANO AV. 3169,-34.572787,-58.459352,4326
36,127,25,150421.0,"CALVO, CARLOS",3677,2020-01-26,"CALVO, CARLOS 3677",-34.624430,-58.417431,4326
14,32,7,212901.0,"CALVO, CARLOS",1456,2020-01-26,"CALVO, CARLOS 1456",-34.619951,-58.386585,4326
1,16,025A,223772.0,MAIPU,730,2020-01-26,MAIPU 730,-34.599592,-58.376858,4326
29,100,8,340316.0,11 DE SEPTIEMBRE DE 1888,4279,2020-01-26,11 DE SEPTIEMBRE DE 1888 4279,-34.540556,-58.465057,4326
12,5,11,218352.0,MORENO,1780,2020-01-26,MORENO 1780,Sin dato,Sin dato,Sin dato
89,42,021D,303705.0,VALLEJOS,4435,2020-01-26,VALLEJOS 4435,-34.599658,-58.520045,4326
48,63,012B,147438.0,LAFUENTE,210,2020-01-26,LAFUENTE 210,-34.633119,-58.467042,4326
3,33,002J,453550.0,DEL LIBERTADOR AV.,336,2020-01-26,DEL LIBERTADOR AV. 336,-34.590938,-58.378418,4326
25,051B,0,336049.0,11 DE SEPTIEMBRE DE 1888,2231,2020-01-26,11 DE SEPTIEMBRE DE 1888 2231,-34.557388,-58.452303,4326
12,2,17,218464.0,ENTRE RIOS AV.,676,2020-01-26,ENTRE RIOS AV. 676,-34.616467,-58.391574,4326
31,9,17,423182.0,THAMES,558,2020-01-26,THAMES 558,-34.594881,-58.442545,4326
20,65,11,200300.0,"YRIGOYEN, HIPOLITO",1970,2020-01-26,"YRIGOYEN, HIPOLITO 1970",-34.610527,-58.394401,4326
15,125,027C,447452.0,PARAGUAY,2661,2020-01-26,PARAGUAY 2661,-34.597023,-58.406161,4326
9,82,26,205195.0,VIAMONTE,1861,2020-01-26,VIAMONTE 1861,-34.600814,-58.393721,4326
89,097A,017E,307042.0,"BEIRO, FRANCISCO AV.",4489,2020-01-26,"BEIRO, FRANCISCO AV. 4489",-34.607184,-58.514077,4326
9,48,22,206269.0,TUCUMAN,2285,2020-01-26,TUCUMAN 2285,-34.602181,-58.399472,4326
54,191,21,22185.0,DIRECTORIO AV.,3309,2020-01-26,DIRECTORIO AV. 3309,-34.636964,-58.472667,4326
17,82,001B,171121.0,GUARDIA VIEJA,4048,2020-01-26,GUARDIA VIEJA 4048,-34.600668,-58.421303,4326
41,123,28,328843.0,MOLDES,2902,2020-01-26,MOLDES 2902,-34.556738,-58.465461,4326
37,156,034A,416740.0,"ARREDONDO, Virrey",2425,2020-01-26,"ARREDONDO, Virrey 2425",-34.567243,-58.451103,4326
31,87,4,420714.0,"ALVAREZ, JULIAN",1075,2020-01-26,"ALVAREZ, JULIAN 1075",-34.595853,-58.428522,4326
33,14,14,401092.0,"LEMOS, JUAN GREGORIO, Gral.",91,2020-01-26,"LEMOS, JUAN GREGORIO, Gral. 91",-34.589381,-58.447148,4326
48,90,29,143510.0,"RECUERO, CASIMIRO, Tte. Cnel.",2501,2020-01-26,"RECUERO, CASIMIRO, Tte. Cnel. 2501",-34.639720,-58.456916,4326
39,42,008D,325937.0,JURAMENTO,3255,2020-01-26,JURAMENTO 3255,-34.566662,-58.464595,4326
60,28,1,11235.0,RIVADAVIA AV.,10702,2020-01-26,RIVADAVIA AV. 10702,-34.639343,-58.514446,4326
48,8,15,146350.0,PORTELA,472,2020-01-26,PORTELA 472,-34.637413,-58.470922,4326
9,77,009A,205106.0,CORRIENTES AV.,1872,2020-01-26,CORRIENTES AV. 1872,-34.604522,-58.393363,4326
25,051B,0,336049.0,11 DE SEPTIEMBRE DE 1888,2231,2020-01-26,11 DE SEPTIEMBRE DE 1888 2231,-34.557388,-58.452303,4326
21,62,15,429954.0,"SCALABRINI ORTIZ, RAUL",3165,2020-01-26,"SCALABRINI ORTIZ, RAUL 3165",-34.580318,-58.410036,4326
65,115,1,134371.0,"VALLESE, FELIPE",2116,2020-01-27,"VALLESE, FELIPE 2116",-34.619966,-58.462917,4326
31,90,31,421718.0,CORDOBA AV.,4660,2020-01-27,CORDOBA AV. 4660,-34.593888,-58.430868,4326
45,125,25,174193.0,"ACEVEDO, EDUARDO",24,2020-01-27,"ACEVEDO, EDUARDO 24",-34.615419,-58.430857,4326
19,11,024C,425435.0,LAVALLEJA,1310,2020-01-27,LAVALLEJA 1310,-34.594720,-58.425256,4326
27,45,028B,372289.0,3 DE FEBRERO,2544,2020-01-27,3 DE FEBRERO 2544,-34.555182,-58.455687,4326
15,12,35,444905.0,"DIAZ, CNEL. AV.",1784,2020-01-27,"DIAZ, CNEL. AV. 1784",-34.590549,-58.411467,4326
12,78,13,216307.0,DE MAYO AV.,961,2020-01-27,DE MAYO AV. 961,-34.608884,-58.380149,4326
11,77,23,440103.0,CALLAO AV.,1156,2020-01-27,CALLAO AV. 1156,-34.595279,-58.393354,4326
21,001B,6,429197.0,"SALGUERO, JERONIMO",2085,2020-01-28,"SALGUERO, JERONIMO 2085",-34.586502,-58.412466,4326
79,008B,19,263596.0,SEGUROLA AV.,1567,2020-01-28,SEGUROLA AV. 1567,-34.621590,-58.497836,4326
83,185,11,269646.0,NAVARRO,3460,2020-01-28,NAVARRO 3460,-34.598909,-58.502417,4326
23,26,31,411514.0,"LACROZE, FEDERICO AV.",2137,2020-01-28,"LACROZE, FEDERICO AV. 2137",-34.567491,-58.442590,4326
8,17,1,111475.0,"VILLAFAÑE, WENCESLAO",1420,2020-01-28,"VILLAFAÑE, WENCESLAO 1420",-34.634906,-58.372248,4326
49,180,28,304726.0,OLLEROS,4159,2020-01-28,OLLEROS 4159,-34.586825,-58.453596,4326
7,48,30,451380.0,ARENALES,1289,2020-01-28,ARENALES 1289,-34.594503,-58.385589,4326
20,56,17,200634.0,RINCON,294,2020-01-28,RINCON 294,-34.612792,-58.396113,4326
4,7,001C,214376.0,CHACABUCO,1305,2020-01-28,CHACABUCO 1305,-34.623525,-58.375598,4326
54,082B,28,4464.0,"ALBERDI, JUAN BAUTISTA AV.",4367,2020-01-28,"ALBERDI, JUAN BAUTISTA AV. 4367",-34.640952,-58.487286,4326
2,45,26,215316.0,BALCARCE,783,2020-01-28,BALCARCE 783,-34.616886,-58.370036,4326
3,47,8,452929.0,DEL LIBERTADOR AV.,134,2020-01-28,DEL LIBERTADOR AV. 134,-34.592457,-58.376127,4326
45,86,017A,178384.0,ACOYTE AV.,735,2020-01-28,ACOYTE AV. 735,-34.609963,-58.439561,4326
16,10,1,113511.0,CASEROS AV.,1952,2020-01-28,CASEROS AV. 1952,-34.634033,-58.389597,4326
45,107,039A,179040.0,CAMPICHUELO,644,2020-01-28,CAMPICHUELO 644,-34.609627,-58.435951,4326
43,32,15,331955.0,MELIAN AV.,3823,2020-01-28,MELIAN AV. 3823,-34.553169,-58.481280,4326
10,11,2,123041.0,"ARAOZ DE LAMADRID, GREGORIO, GRAL.",1546,2020-01-28,"ARAOZ DE LAMADRID, GREGORIO, GRAL. 1546",-34.640537,-58.373311,4326
18,132B,009A,119701.0,"MONTES DE OCA, MANUEL",1795,2020-01-28,"MONTES DE OCA, MANUEL 1795",-34.647952,-58.373012,4326
15,81,25,443470.0,GALLO,1225,2020-01-28,GALLO 1225,-34.595951,-58.411393,4326
20,49,1,200874.0,RINCON,101,2020-01-28,RINCON 101,-34.610750,-58.396266,4326
47,1,2,230052.0,"RODRIGUEZ, MANUEL A., GENERAL",1134,2020-01-28,"RODRIGUEZ, MANUEL A., GENERAL 1134",-34.608047,-58.448107,4326
65,123,30,133822.0,AVELLANEDA AV.,2015,2020-01-28,AVELLANEDA AV. 2015,-34.622516,-58.460054,4326
20,19,001I,202501.0,RIVADAVIA AV.,2594,2020-01-28,RIVADAVIA AV. 2594,-34.610044,-58.403200,4326
5,53,020G,223442.0,LIBERTAD,325,2020-01-28,LIBERTAD 325,Sin dato,Sin dato,Sin dato
12,22,22,217851.0,"SAENZ PEÑA, LUIS, PRES.",163,2020-01-28,"SAENZ PEÑA, LUIS, PRES. 163",-34.610690,-58.387551,4326
18,142A,51,117136.0,"MONTES DE OCA, MANUEL",1089,2020-01-28,"MONTES DE OCA, MANUEL 1089",-34.640651,-58.374346,4326
23,93,11,412852.0,"NEWBERY, JORGE",1796,2020-01-28,"NEWBERY, JORGE 1796",-34.568057,-58.435421,4326
23,086A,2,412943.0,ARCE,808,2020-01-28,ARCE 808,-34.568094,-58.435796,4326
15,105,7,443354.0,ARENALES,2858,2020-01-28,ARENALES 2858,-34.591413,-58.405617,4326
25,12,007E,373363.0,VUELTA DE OBLIGADO,2227,2020-01-28,VUELTA DE OBLIGADO 2227,-34.560209,-58.456701,4326
48,132,29,141308.0,DIRECTORIO AV.,2167,2020-01-28,DIRECTORIO AV. 2167,-34.632338,-58.457307,4326
57,83,22,131096.0,RIVADAVIA AV.,5881,2020-01-28,RIVADAVIA AV. 5881,-34.623061,-58.447765,4326
5,13,9,222827.0,LAVALLE,1672,2020-01-28,LAVALLE 1672,-34.603119,-58.390400,4326
22,43,30,180839.0,RINCON,1083,2020-01-28,RINCON 1083,-34.621474,-58.395739,4326
48,104,022Q,148135.0,PEDERNERA,662,2020-01-28,PEDERNERA 662,-34.636683,-58.460438,4326
39,79,11,326589.0,MOLDES,2348,2020-01-28,MOLDES 2348,-34.561375,-58.461491,4326
23,13,019A,416197.0,GOROSTIAGA,2326,2020-01-28,GOROSTIAGA 2326,-34.570208,-58.442082,4326
23,94,12,413002.0,"NEWBERY, JORGE",1765,2020-01-28,"NEWBERY, JORGE 1765",-34.567851,-58.435356,4326
15,22,12,444399.0,"MANSILLA, LUCIO NORBERTO, GENERAL",3371,2020-01-28,"MANSILLA, LUCIO NORBERTO, GENERAL 3371",-34.592429,-58.412640,4326
8,27,006H,119081.0,RUY DIAZ DE GUZMAN,103,2020-01-28,RUY DIAZ DE GUZMAN 103,-34.631898,-58.371463,4326
12,17,17,217963.0,"CEVALLOS, Virrey",646,2020-01-28,"CEVALLOS, Virrey 646",-34.615978,-58.388955,4326
30,93,3,182612.0,SAN JUAN AV.,2714,2020-01-28,SAN JUAN AV. 2714,-34.623900,-58.402490,4326
11,79,30,441782.0,JUNCAL,1971,2020-01-28,JUNCAL 1971,-34.593452,-58.395151,4326
18,132B,8,114012.0,"IRIARTE, GRAL.",1717,2020-01-28,"IRIARTE, GRAL. 1717",-34.648186,-58.373240,4326
47,174,26,225437.0,ACEVEDO,396,2020-01-28,ACEVEDO 396,Sin dato,Sin dato,Sin dato
62,39,002I,94450.0,"ALBERDI, JUAN BAUTISTA AV.",5674,2020-01-28,"ALBERDI, JUAN BAUTISTA AV. 5674",-34.650292,-58.500951,4326
45,97,33,175132.0,"LOBOS, ELEODORO, Dr.",514,2020-01-28,"LOBOS, ELEODORO, Dr. 514",-34.611858,-58.436800,4326
1,45,19,223304.0,CORRIENTES AV.,369,2020-01-28,CORRIENTES AV. 369,-34.603032,-58.372014,4326
4,23,19,210678.0,PERU,960,2020-01-29,PERU 960,-34.619174,-58.374297,4326
40,129,7,155357.0,"ALBERDI, JUAN BAUTISTA AV.",162,2020-01-29,"ALBERDI, JUAN BAUTISTA AV. 162",-34.622531,-58.430156,4326
71,085A,10,257031.0,"CARRIL, SALVADOR MARIA DEL AV.",2636,2020-01-29,"CARRIL, SALVADOR MARIA DEL AV. 2636",-34.588878,-58.495123,4326
39,17,001C,325584.0,JURAMENTO,3544,2020-01-29,JURAMENTO 3544,-34.568901,-58.468206,4326
3,39,3,450387.0,JUNCAL,734,2020-01-29,JUNCAL 734,-34.592959,-58.377558,4326
41,71,18,330604.0,AZURDUY JUANA,3375,2020-01-29,AZURDUY JUANA 3375,-34.555525,-58.475257,4326
48,111C,21,141953.0,"ORTIZ, CARLOS",829,2020-01-29,"ORTIZ, CARLOS 829",-34.637271,-58.455814,4326
21,47,29,430318.0,LAS HERAS GENERAL AV.,4015,2020-01-29,LAS HERAS GENERAL AV. 4015,-34.581557,-58.415402,4326
29,5,18,339710.0,VILELA,2393,2020-01-29,VILELA 2393,-34.545890,-58.470155,4326
48,63,14,144184.0,LAFUENTE,224,2020-01-29,LAFUENTE 224,-34.633361,-58.466937,4326
65,042A,13,136229.0,YERBAL,2733,2020-01-29,YERBAL 2733,-34.628828,-58.467973,4326
45,153,32,174027.0,RIO DE JANEIRO,730,2020-01-29,RIO DE JANEIRO 730,-34.606839,-58.430678,4326
42,31,28,139772.0,THORNE,445,2020-01-29,THORNE 445,-34.629849,-58.450858,4326
7,19,28,452302.0,ARENALES,1693,2020-01-29,ARENALES 1693,-34.594895,-58.391856,4326
48,114C,18,142395.0,"LAFERRERE, GREGORIO de",2379,2020-01-29,"LAFERRERE, GREGORIO de 2379",-34.635776,-58.458264,4326
48,75,033A,143970.0,CULPINA,778,2020-01-29,CULPINA 778,-34.638328,-58.462434,4326
45,84,18,178094.0,"ARANGUREN, JUAN F., Dr.",493,2020-01-29,"ARANGUREN, JUAN F., Dr. 493",-34.612604,-58.438127,4326
37,93,19,409571.0,DE LOS INCAS AV.,3199,2020-01-29,DE LOS INCAS AV. 3199,-34.571330,-58.459618,4326
22,41,26,180908.0,RINCON,1281,2020-01-29,RINCON 1281,-34.623861,-58.394873,4326
48,114D,16,142427.0,ROBERTSON,582,2020-01-29,ROBERTSON 582,-34.635776,-58.458862,4326
3,36,001A,450348.0,MAIPU,1020,2020-01-29,MAIPU 1020,-34.595900,-58.377015,4326
15,013B,29,446538.0,ANASAGASTI,2080,2020-01-29,ANASAGASTI 2080,-34.588660,-58.411348,4326
4,11,38,211156.0,CHACABUCO,937,2020-01-29,CHACABUCO 937,-34.618998,-58.375881,4326
65,041B,13,136206.0,TERRADA,55,2020-01-29,TERRADA 55,-34.629670,-58.468563,4326
38,132,21,39605.0,ALAGON,75,2020-01-29,ALAGON 75,-34.640704,-58.422181,4326
8,55,20,110496.0,CASEROS AV.,439,2020-01-29,CASEROS AV. 439,-34.626558,-58.371654,4326
22,42,6,180854.0,HUMBERTO 1°,2168,2020-01-29,HUMBERTO 1° 2168,-34.621813,-58.396255,4326
22,2,4,182158.0,CONSTITUCION,2526,2020-01-29,CONSTITUCION 2526,-34.626286,-58.400614,4326
19,017A,6,427464.0,"CABRER, Cnel.",4976,2020-01-29,"CABRER, Cnel. 4976",-34.589918,-58.431441,4326
45,103B,2,174774.0,BOGOTA,210,2020-01-29,BOGOTA 210,-34.613477,-58.434622,4326
48,1,003B,146611.0,PRIMERA JUNTA,3418,2020-01-29,PRIMERA JUNTA 3418,-34.643860,-58.464827,4326
35,75,13,416852.0,SOLER,5894,2020-01-29,SOLER 5894,-34.578598,-58.435553,4326
9,59,19,205499.0,"MITRE, BARTOLOME",2073,2020-01-29,"MITRE, BARTOLOME 2073",-34.608187,-58.395880,4326
45,86,20,175312.0,ACOYTE AV.,725,2020-01-29,ACOYTE AV. 725,-34.610167,-58.439478,4326
47,127,21,227234.0,"DUMONT, SANTOS",4457,2020-01-30,"DUMONT, SANTOS 4457",-34.592926,-58.453843,4326
21,98,22,433395.0,ZENTENO,3160,2020-01-30,ZENTENO 3160,-34.579953,-58.403601,4326
30,90,14,182739.0,CATAMARCA,1536,2020-01-30,CATAMARCA 1536,-34.628050,-58.402497,4326
25,26,021A,376456.0,O'HIGGINS,2202,2020-01-30,O'HIGGINS 2202,-34.558797,-58.453921,4326
48,108,32,142783.0,"ALBERDI, JUAN BAUTISTA AV.",2465,2020-01-30,"ALBERDI, JUAN BAUTISTA AV. 2465",-34.631493,-58.462675,4326
48,69,023B,148334.0,"FERNANDEZ MORENO, BALDOMERO",2805,2020-01-30,"FERNANDEZ MORENO, BALDOMERO 2805",-34.639612,-58.461025,4326
39,88,003C,325193.0,AMENABAR,1893,2020-01-30,AMENABAR 1893,-34.565144,-58.456793,4326
33,91,13,405423.0,"NEWBERY, JORGE",3234,2020-01-30,"NEWBERY, JORGE 3234",-34.579633,-58.447070,4326
19,79,4,426082.0,"SCALABRINI ORTIZ, RAUL AV.",1837,2020-01-30,"SCALABRINI ORTIZ, RAUL AV. 1837",-34.589593,-58.422812,4326
48,85,5,143897.0,PRIMERA JUNTA,2656,2020-01-30,PRIMERA JUNTA 2656,-34.639855,-58.458917,4326
48,111F,5,142618.0,ROBERTSON,832,2020-01-30,ROBERTSON 832,-34.638057,-58.456496,4326
45,87,21,175354.0,DIAZ VELEZ AV.,5173,2020-01-30,DIAZ VELEZ AV. 5173,-34.608713,-58.439738,4326
65,48,032B,136435.0,CONDARCO,832,2020-01-30,CONDARCO 832,-34.621958,-58.470477,4326
38,146,27,39303.0,CASEROS AV.,4051,2020-01-30,CASEROS AV. 4051,-34.639797,-58.421633,4326
79,137,42,258190.0,CUENCA,1380,2020-01-30,CUENCA 1380,-34.617757,-58.481842,4326
69,15,015A,254256.0,ARGERICH,2365,2020-01-30,ARGERICH 2365,-34.608707,-58.485380,4326
22,24,2,181566.0,COCHABAMBA,2314,2020-01-30,COCHABAMBA 2314,-34.624540,-58.397792,4326
19,034A,004A,427506.0,SORIA,4956,2020-01-30,SORIA 4956,-34.589335,-58.430287,4326
33,35,015A,400765.0,DORREGO AV.,1263,2020-01-30,DORREGO AV. 1263,-34.587187,-58.445490,4326
40,41,35,161199.0,GUAYAQUIL,809,2020-01-30,GUAYAQUIL 809,-34.621702,-58.439430,4326
7,46,2,451328.0,SANTA FE AV.,1226,2020-01-30,SANTA FE AV. 1226,-34.595701,-58.384750,4326
30,57,32,183761.0,"GARAY, JUAN DE AV.",3063,2020-01-30,"GARAY, JUAN DE AV. 3063",-34.629353,-58.407727,4326
15,85,013A,443622.0,GUEMES,2981,2020-01-30,GUEMES 2981,-34.591966,-58.408611,4326
48,105,12,142889.0,PEDERNERA,512,2020-01-30,PEDERNERA 512,-34.634916,-58.461684,4326
23,83,32,412715.0,ORTEGA Y GASSET,1881,2020-01-30,ORTEGA Y GASSET 1881,-34.570681,-58.433046,4326
36,109,26,151033.0,CASTRO BARROS,980,2020-01-30,CASTRO BARROS 980,-34.624004,-58.419118,4326
4,3,31,211480.0,PIEDRAS,1179,2020-01-31,PIEDRAS 1179,-34.621780,-58.377270,4326
19,169,25,427006.0,GUEMES,4147,2020-01-31,GUEMES 4147,-34.584943,-58.418935,4326
23,115,4,413516.0,DEL LIBERTADOR AV.,5346,2020-01-31,DEL LIBERTADOR AV. 5346,-34.562420,-58.442141,4326
24,65,8,100631.0,15 DE NOVIEMBRE DE 1889,2554,2020-01-31,15 DE NOVIEMBRE DE 1889 2554,-34.633617,-58.399051,4326
15,104,28,443298.0,CHARCAS,2975,2020-01-31,CHARCAS 2975,-34.593171,-58.408081,4326
17,99,25,170004.0,RIVADAVIA AV.,3729,2020-01-31,RIVADAVIA AV. 3729,-34.610981,-58.418955,4326
40,102,007A,162078.0,ROSARIO,398,2020-01-31,ROSARIO 398,Sin dato,Sin dato,Sin dato
19,138,25,426938.0,PARAGUAY,4263,2020-01-31,PARAGUAY 4263,-34.586450,-58.421822,4326
40,102,001A,162048.0,ROSARIO,302,2020-01-31,ROSARIO 302,Sin dato,Sin dato,Sin dato
15,12,2,444901.0,GUEMES,3334,2020-01-31,GUEMES 3334,-34.590148,-58.411596,4326
37,062A,4,409348.0,SUPERI,1426,2020-01-31,SUPERI 1426,-34.574087,-58.460308,4326
41,142,21,327626.0,CIUDAD DE LA PAZ,2626,2020-01-31,CIUDAD DE LA PAZ 2626,-34.557977,-58.461701,4326
23,2,55,410839.0,SANTA FE AV.,4981,2020-01-31,SANTA FE AV. 4981,-34.576965,-58.429928,4326
23,114,13,413465.0,SOLDADO DE LA INDEPENDENCIA,1381,2020-01-31,SOLDADO DE LA INDEPENDENCIA 1381,-34.563256,-58.441545,4326
28,38,19,193932.0,BELGRANO AV.,3177,2020-01-31,BELGRANO AV. 3177,-34.615241,-58.410854,4326
39,81,004C,325173.0,"SUCRE, ANTONIO JOSE de, Mcal.",2676,2020-01-31,"SUCRE, ANTONIO JOSE de, Mcal. 2676",-34.565449,-58.457562,4326
37,124,7,410606.0,"HERNANDEZ, JOSE",2792,2020-01-31,"HERNANDEZ, JOSE 2792",-34.567784,-58.457042,4326
21,26,11,430550.0,FRAY JUSTO SANTAMARIA DE ORO,2639,2020-01-31,FRAY JUSTO SANTAMARIA DE ORO 2639,-34.577913,-58.423034,4326
25,16,5,335481.0,CUBA,1965,2020-01-31,CUBA 1965,-34.562218,-58.453575,4326
48,114C,6,142383.0,CRANWELL,526,2020-01-31,CRANWELL 526,-34.634999,-58.459238,4326
48,59,1,144337.0,CULPINA,611,2020-01-31,CULPINA 611,-34.637188,-58.463781,4326
17,101,26,170062.0,DIAZ VELEZ AV.,3735,2020-01-31,DIAZ VELEZ AV. 3735,-34.608455,-58.419268,4326
23,37,13,411811.0,CESPEDES,2293,2020-01-31,CESPEDES 2293,-34.567522,-58.447437,4326
43,159,38,333590.0,SAN ISIDRO LABRADOR AV.,4356,2020-01-31,SAN ISIDRO LABRADOR AV. 4356,-34.544570,-58.473257,4326
48,89,23,143544.0,"PERON, EVA AV.",2515,2020-01-31,"PERON, EVA AV. 2515",-34.640621,-58.456067,4326
48,33,8,145338.0,DIRECTORIO AV.,2962,2020-01-31,DIRECTORIO AV. 2962,-34.635873,-58.468378,4326
15,3,29,444626.0,BULNES,1425,2020-01-31,BULNES 1425,-34.595246,-58.416628,4326
19,170,32,427443.0,SANTA FE AV.,3918,2020-02-01,SANTA FE AV. 3918,-34.583421,-58.418649,4326
45,104,007B,174797.0,AVELLANEDA,376,2020-02-01,AVELLANEDA 376,-34.613262,-58.435727,4326
7,30,017B,453338.0,MONTEVIDEO,1151,2020-02-01,MONTEVIDEO 1151,-34.595557,-58.389931,4326
9,66,032A,205231.0,RIOBAMBA,10,2020-02-01,RIOBAMBA 10,-34.609097,-58.393438,4326
15,44,001F,447285.0,SANCHEZ DE BUSTAMANTE,1464,2020-02-01,SANCHEZ DE BUSTAMANTE 1464,-34.593487,-58.411903,4326
19,137,4,426564.0,CHARCAS,3936,2020-02-01,CHARCAS 3936,-34.586555,-58.419367,4326
53,12,004F,372328.0,"LARRALDE, CRISOLOGO AV.",5142,2020-02-01,"LARRALDE, CRISOLOGO AV. 5142",-34.562050,-58.493380,4326
39,2,9,325231.0,"NAON, ROMULO",1961,2020-02-01,"NAON, ROMULO 1961",-34.571443,-58.469229,4326
45,103B,21,174760.0,"ARAOZ ALFARO, GREGORIO, DR",295,2020-02-01,"ARAOZ ALFARO, GREGORIO, DR 295",-34.615037,-58.435029,4326
21,2,13,429251.0,SANTA FE AV.,3465,2020-02-01,SANTA FE AV. 3465,-34.586540,-58.413702,4326
19,33,5,427101.0,HONDURAS,4852,2020-02-01,HONDURAS 4852,-34.589727,-58.428749,4326
21,83,7,430609.0,DEMARIA,4458,2020-02-01,DEMARIA 4458,-34.575253,-58.420127,4326
40,71,43,157258.0,"MORENO, JOSE MARIA AV.",425,2020-02-01,"MORENO, JOSE MARIA AV. 425",-34.623517,-58.434668,4326
45,132,005A,174317.0,"ARANGUREN, JUAN F., Dr.",140,2020-02-01,"ARANGUREN, JUAN F., Dr. 140",-34.610533,-58.432881,4326
40,38,041B,161520.0,"ALBERDI, JUAN BAUTISTA AV.",757,2020-02-01,"ALBERDI, JUAN BAUTISTA AV. 757",-34.623001,-58.438963,4326
39,101,014F,374001.0,BLANCO ENCALADA,2473,2020-02-01,BLANCO ENCALADA 2473,-34.559652,-58.459889,4326
22,36,013C,181078.0,PICHINCHA,926,2020-02-01,PICHINCHA 926,-34.619931,-58.398701,4326
23,37,12,411792.0,VUELTA DE OBLIGADO,1201,2020-02-01,VUELTA DE OBLIGADO 1201,-34.567556,-58.447686,4326
79,100,41,259604.0,CONCORDIA,970,2020-02-01,CONCORDIA 970,-34.622475,-58.480357,4326
65,041A,9,136182.0,LA PORTEÑA,45,2020-02-02,LA PORTEÑA 45,-34.629519,-58.467694,4326
36,136,020A,161578.0,MORENO,3625,2020-02-02,MORENO 3625,Sin dato,Sin dato,Sin dato
19,116,1,426529.0,"SCALABRINI ORTIZ, RAUL AV.",2096,2020-02-02,"SCALABRINI ORTIZ, RAUL AV. 2096",-34.587805,-58.420381,4326
65,125,18,133904.0,MENDEZ DE ANDES,2061,2020-02-02,MENDEZ DE ANDES 2061,-34.620735,-58.461770,4326
39,5,012C,326107.0,WASHINGTON,2232,2020-02-02,WASHINGTON 2232,-34.568428,-58.470534,4326
7,39,032D,453218.0,TALCAHUANO,934,2020-02-02,TALCAHUANO 934,-34.597810,-58.385626,4326
39,68,20,325416.0,VIDAL,1974,2020-02-02,VIDAL 1974,-34.565403,-58.459364,4326
13,92,28,190320.0,LAVALLE,2823,2020-02-02,LAVALLE 2823,-34.603087,-58.406624,4326
15,12,15,444885.0,CHARCAS,3333,2020-02-02,CHARCAS 3333,-34.591271,-58.412833,4326
1,24,13,220782.0,MAIPU,759,2020-02-02,MAIPU 759,-34.599221,-58.376801,4326
46,10,23,53216.0,VARELA AV.,3388,2020-02-02,VARELA AV. 3388,-34.660668,-58.433043,4326
57,62,8,146824.0,MENDEZ DE ANDES,1470,2020-02-02,MENDEZ DE ANDES 1470,-34.617812,-58.454724,4326
1,2,23,221045.0,SUIPACHA,119,2020-02-02,SUIPACHA 119,-34.606891,-58.379259,4326
41,44,11,330526.0,"PEREZ, ROQUE",3441,2020-02-02,"PEREZ, ROQUE 3441",-34.556333,-58.477570,4326
4,9,030C,214560.0,SAN JUAN AV.,735,2020-02-02,SAN JUAN AV. 735,-34.621939,-58.376289,4326
4,13,17,211058.0,CHACABUCO,1334,2020-02-02,CHACABUCO 1334,-34.623790,-58.375487,4326
1,14,25,220925.0,LAVALLE,725,2020-02-02,LAVALLE 725,Sin dato,Sin dato,Sin dato
39,11,10,325840.0,WASHINGTON,2173,2020-02-02,WASHINGTON 2173,-34.568936,-58.469987,4326
39,88,17,325199.0,CIUDAD DE LA PAZ,1882,2020-02-02,CIUDAD DE LA PAZ 1882,-34.564787,-58.455853,4326
1,017A,1,220614.0,"SAENZ PEÑA, ROQUE, PRES. AV.",614,2020-02-02,"SAENZ PEÑA, ROQUE, PRES. AV. 614",-34.607231,-58.375157,4326
73,39,34,361721.0,CONDARCO,4730,2020-02-02,CONDARCO 4730,-34.584575,-58.500253,4326
15,21,6,444380.0,"MANSILLA, LUCIO NORBERTO, GENERAL",3358,2020-02-02,"MANSILLA, LUCIO NORBERTO, GENERAL 3358",-34.592542,-58.412666,4326
19,151,32,426611.0,"SCALABRINI ORTIZ, RAUL AV.",2372,2020-02-02,"SCALABRINI ORTIZ, RAUL AV. 2372",-34.586293,-58.417963,4326
48,110E,28,142687.0,MEMBRILLAR,953,2020-02-02,MEMBRILLAR 953,-34.638931,-58.455091,4326
93,93,18,293091.0,BRUSELAS,807,2020-02-02,BRUSELAS 807,-34.627842,-58.522996,4326
19,103,24,425775.0,"ALVAREZ, JULIAN",1940,2020-02-02,"ALVAREZ, JULIAN 1940",-34.589804,-58.419906,4326
21,13,14,429353.0,ARENALES,3655,2020-02-02,ARENALES 3655,-34.585438,-58.413505,4326
13,83,14,190660.0,TUCUMAN,2945,2020-02-02,TUCUMAN 2945,-34.601298,-58.407384,4326
19,15,32,426663.0,"CABRERA, JOSE A.",4723,2020-02-03,"CABRERA, JOSE A. 4723",-34.591921,-58.429431,4326
36,130,4,150283.0,MEXICO,3628,2020-02-03,MEXICO 3628,-34.619882,-58.417150,4326
27,2,9,336794.0,CABILDO AV.,2737,2020-02-03,CABILDO AV. 2737,-34.556687,-58.461198,4326
19,113,6,424935.0,"ALVAREZ, JULIAN",2057,2020-02-03,"ALVAREZ, JULIAN 2057",-34.589215,-58.418706,4326
36,63,10,152502.0,TREINTA Y TRES ORIENTALES,86,2020-02-03,TREINTA Y TRES ORIENTALES 86,-34.614496,-58.424601,4326
53,39,17,345428.0,MILLER,2546,2020-02-03,MILLER 2546,-34.570674,-58.481369,4326
22,29,34,181400.0,PICHINCHA,833,2020-02-03,PICHINCHA 833,-34.618931,-58.398988,4326
20,44,036A,201085.0,RINCON,673,2020-02-04,RINCON 673,-34.616880,-58.396120,4326
23,95,23,413072.0,ARCE,973,2020-02-04,ARCE 973,-34.567038,-58.437449,4326
48,95,007D,458174.0,DIRECTORIO AV.,2578,2020-02-04,DIRECTORIO AV. 2578,-34.634314,-58.463160,4326
17,45,15,178808.0,PRINGLES,625,2020-02-04,PRINGLES 625,-34.604929,-58.427397,4326
15,24,3,444472.0,SANTA FE AV.,3168,2020-02-04,SANTA FE AV. 3168,-34.589403,-58.409801,4326
22,52,34,180545.0,SARANDI,921,2020-02-04,SARANDI 921,-34.619839,-58.394548,4326
23,64,15,412244.0,"HERNANDEZ, JOSE",1951,2020-02-04,"HERNANDEZ, JOSE 1951",-34.563324,-58.449314,4326
23,118,25,415348.0,DEL LIBERTADOR AV.,4534,2020-02-04,DEL LIBERTADOR AV. 4534,-34.566695,-58.431778,4326
43,121,001F,367492.0,ARIAS,2994,2020-02-04,ARIAS 2994,-34.544214,-58.478984,4326
21,73,11,430169.0,REPUBLICA ARABE SIRIA,3215,2020-02-04,REPUBLICA ARABE SIRIA 3215,-34.578846,-58.412236,4326
15,31,005D,446420.0,BILLINGHURST,2444,2020-02-04,BILLINGHURST 2444,-34.584152,-58.404734,4326
25,33,2,335804.0,MENDOZA,1910,2020-02-04,MENDOZA 1910,Sin dato,Sin dato,Sin dato
47,90,7,228072.0,HIDALGO,1295,2020-02-04,HIDALGO 1295,-34.605087,-58.442685,4326
7,47,6,451357.0,ARENALES,1266,2020-02-05,ARENALES 1266,-34.594555,-58.385340,4326
30,97,12,182441.0,INDEPENDENCIA AV.,2774,2020-02-05,INDEPENDENCIA AV. 2774,-34.619163,-58.404669,4326
13,31,21,192124.0,GUARDIA VIEJA,3549,2020-02-05,GUARDIA VIEJA 3549,-34.601879,-58.414779,4326
35,5,30,403889.0,"CABRERA, JOSE A.",5839,2020-02-05,"CABRERA, JOSE A. 5839",-34.583856,-58.440556,4326
43,93,17,331445.0,"LARRALDE, CRISOLOGO AV.",3117,2020-02-05,"LARRALDE, CRISOLOGO AV. 3117",-34.552491,-58.474669,4326
47,042A,25,227736.0,MONTENEGRO,324,2020-02-05,MONTENEGRO 324,-34.595582,-58.457238,4326
17,087B,29,170421.0,"SALGUERO, JERONIMO",150,2020-02-05,"SALGUERO, JERONIMO 150",-34.609210,-58.420029,4326
19,9,28,425308.0,"CABRERA, JOSE A.",4033,2020-02-05,"CABRERA, JOSE A. 4033",-34.596271,-58.423561,4326
15,11,2,444946.0,GUEMES,3416,2020-02-05,GUEMES 3416,-34.589716,-58.412262,4326
22,29,29,181395.0,PICHINCHA,881,2020-02-05,PICHINCHA 881,-34.619312,-58.398953,4326
13,49,10,191404.0,"GOMEZ, VALENTIN",3396,2020-02-05,"GOMEZ, VALENTIN 3396",-34.605169,-58.413258,4326
63,125,13,374837.0,ROOSEVELT FRANKLIN D. AV.,5023,2020-02-05,ROOSEVELT FRANKLIN D. AV. 5023,-34.573122,-58.486516,4326
33,93,030A,405663.0,"NEWBERY, JORGE",3329,2020-02-05,"NEWBERY, JORGE 3329",-34.580473,-58.447776,4326
30,91,6,182692.0,CONSTITUCION,2650,2020-02-05,CONSTITUCION 2650,-34.626548,-58.402285,4326
22,3,25,182133.0,CONSTITUCION,2581,2020-02-05,CONSTITUCION 2581,-34.626296,-58.401311,4326
37,151,001F,409992.0,CABILDO AV.,1030,2020-02-05,CABILDO AV. 1030,-34.569131,-58.446820,4326
9,31,019D,207926.0,TUCUMAN,2485,2020-02-05,TUCUMAN 2485,-34.602070,-58.402137,4326
11,85,001E,448021.0,ALVEAR AV.,1869,2020-02-05,ALVEAR AV. 1869,-34.587868,-58.388705,4326
34,005A,001C,108001.0,FALUCHO,107,2020-02-05,FALUCHO 107,-34.654677,-58.415479,4326
17,67,005C,171309.0,POTOSI,4052,2020-02-05,POTOSI 4052,-34.607320,-58.423764,4326
47,168,30,225234.0,"FRIAS, EUSTOQUIO, TTE. GENERAL",156,2020-02-05,"FRIAS, EUSTOQUIO, TTE. GENERAL 156",-34.603385,-58.436302,4326
39,99,007A,366925.0,OLAZABAL,2494,2020-02-05,OLAZABAL 2494,-34.560656,-58.459059,4326
40,101,12,161762.0,BEAUCHEF,338,2020-02-05,BEAUCHEF 338,-34.620592,-58.433942,4326
30,84,45,182881.0,CATAMARCA,1045,2020-02-05,CATAMARCA 1045,-34.622096,-58.404450,4326
22,31,38,185597.0,PASCO,1487,2020-02-05,PASCO 1487,-34.626555,-58.395621,4326
23,127,3,413624.0,DEL LIBERTADOR AV.,5624,2020-02-05,DEL LIBERTADOR AV. 5624,-34.560400,-58.444880,4326
47,170,9,225333.0,ARAOZ,231,2020-02-06,ARAOZ 231,Sin dato,Sin dato,Sin dato
60,42,15,10755.0,RIVADAVIA AV.,10598,2020-02-06,RIVADAVIA AV. 10598,-34.639402,-58.512781,4326
47,116,8,226300.0,GURRUCHAGA,131,2020-02-06,GURRUCHAGA 131,-34.600402,-58.445460,4326
22,29,12,181378.0,MATHEU,860,2020-02-06,MATHEU 860,-34.619286,-58.399923,4326
43,163,30,334635.0,ARIAS,2621,2020-02-06,ARIAS 2621,-34.542954,-58.475419,4326
23,96,26,413166.0,GOROSTIAGA,1891,2020-02-06,GOROSTIAGA 1891,-34.567119,-58.437978,4326
59,158,33,232530.0,"BELAUSTEGUI, LUIS, Dr.",1149,2020-02-06,"BELAUSTEGUI, LUIS, Dr. 1149",-34.605671,-58.456803,4326
27,36,10,337114.0,ARCOS,2767,2020-02-06,ARCOS 2767,-34.554179,-58.459162,4326
11,77,012A,440093.0,SANTA FE AV.,1881,2020-02-06,SANTA FE AV. 1881,-34.595745,-58.394331,4326
21,106,3,431209.0,CAVIA,3079,2020-02-06,CAVIA 3079,-34.576479,-58.406373,4326
19,76,023D,432541.0,"ALVAREZ, JULIAN",1704,2020-02-06,"ALVAREZ, JULIAN 1704",-34.591388,-58.422251,4326
3,1,011A,451076.0,LIBERTAD,863,2020-02-06,LIBERTAD 863,Sin dato,Sin dato,Sin dato
15,108,3,445366.0,FRENCH,2728,2020-02-06,FRENCH 2728,-34.589081,-58.402364,4326
48,28,2,145594.0,SAN PEDRITO,835,2020-02-06,SAN PEDRITO 835,-34.640493,-58.464120,4326
22,2,007B,182162.0,CONSTITUCION,2552,2020-02-06,CONSTITUCION 2552,-34.626333,-58.400913,4326
20,54,24,200721.0,REPUBLICA BOLIVARIANA DE VENEZUELA,2061,2020-02-06,REPUBLICA BOLIVARIANA DE VENEZUELA 2061,-34.615159,-58.395437,4326
15,116,006A,443030.0,CHARCAS,2852,2020-02-06,CHARCAS 2852,-34.593923,-58.406690,4326
37,062B,21,409333.0,DE LOS INCAS AV.,3444,2020-02-06,DE LOS INCAS AV. 3444,-34.573785,-58.461789,4326
9,51,41,205815.0,JUNIN,160,2020-02-06,JUNIN 160,-34.607587,-58.396484,4326
11,72,37,440224.0,RIOBAMBA,1170,2020-02-06,RIOBAMBA 1170,-34.595049,-58.394616,4326
4,11,21,211140.0,"CALVO, CARLOS",787,2020-02-06,"CALVO, CARLOS 787",-34.619689,-58.377069,4326
9,1,7,207299.0,PUEYRREDON AV.,47,2020-02-06,PUEYRREDON AV. 47,-34.609365,-58.405886,4326
15,130,6,441742.0,"ANCHORENA, TOMAS MANUEL DE, DR.",1577,2020-02-06,"ANCHORENA, TOMAS MANUEL DE, DR. 1577",-34.591966,-58.403490,4326
19,168,24,426628.0,GUEMES,4069,2020-02-06,GUEMES 4069,-34.585542,-58.418106,4326
89,56,032A,307343.0,"JUAREZ, BENITO",4150,2020-02-06,"JUAREZ, BENITO 4150",-34.603502,-58.519801,4326
5,37,31,221971.0,"PERON, JUAN DOMINGO, TTE. GENERAL",1327,2020-02-06,"PERON, JUAN DOMINGO, TTE. GENERAL 1327",-34.606346,-58.385455,4326
20,64,5,200331.0,"ALSINA, ADOLFO",1936,2020-02-06,"ALSINA, ADOLFO 1936",-34.611672,-58.393854,4326
37,63,016A,416475.0,DE LOS INCAS AV.,3390,2020-02-06,DE LOS INCAS AV. 3390,-34.573385,-58.461375,4326
9,1,8,207298.0,PUEYRREDON AV.,35,2020-02-06,PUEYRREDON AV. 35,-34.609507,-58.405879,4326
36,52,15,152939.0,TREINTA Y TRES ORIENTALES,1000,2020-02-06,TREINTA Y TRES ORIENTALES 1000,-34.626322,-58.422804,4326
15,132,014A,441295.0,PARAGUAY,2594,2020-02-06,PARAGUAY 2594,-34.597294,-58.405041,4326
19,152,28,431724.0,MALABIA,2312,2020-02-06,MALABIA 2312,-34.585957,-58.419732,4326
59,120,6,303327.0,"SEGUI, F. J., ALTE.",2161,2020-02-06,"SEGUI, F. J., ALTE. 2161",-34.601342,-58.462227,4326
77,97,2,1906.0,GAONA AV.,4416,2020-02-06,GAONA AV. 4416,-34.625904,-58.485608,4326
33,99,8,406242.0,"LACROZE, FEDERICO AV.",3314,2020-02-06,"LACROZE, FEDERICO AV. 3314",-34.579162,-58.450013,4326
43,163,31,334634.0,ARIAS,2603,2020-02-06,ARIAS 2603,-34.542925,-58.475331,4326
12,41,19,217253.0,SANTIAGO DEL ESTERO,774,2020-02-06,SANTIAGO DEL ESTERO 774,-34.617458,-58.384313,4326
19,106,25,426863.0,SOLER,4525,2020-02-06,SOLER 4525,-34.588040,-58.423450,4326
21,80,29,430509.0,LAFINUR,3324,2020-02-06,LAFINUR 3324,-34.577356,-58.412431,4326
48,80,2,143696.0,VARELA,391,2020-02-06,VARELA 391,-34.634091,-58.463605,4326
17,11,12,177795.0,RIO DE JANEIRO,1087,2020-02-06,RIO DE JANEIRO 1087,-34.602882,-58.433099,4326
51,050B,8,350076.0,AVALOS,1859,2020-02-06,AVALOS 1859,-34.579782,-58.481577,4326
37,134,006B,416229.0,"ARREDONDO, Virrey",2675,2020-02-06,"ARREDONDO, Virrey 2675",-34.569394,-58.452790,4326
39,62,21,373422.0,CRAMER AV.,2074,2020-02-06,CRAMER AV. 2074,-34.565043,-58.461190,4326
81,006B,8,277201.0,NOGOYA,4446,2020-02-06,NOGOYA 4446,-34.611815,-58.506830,4326
83,211,5,269376.0,"MORAN, PEDRO",3330,2020-02-06,"MORAN, PEDRO 3330",-34.596399,-58.502060,4326
22,43,22,180831.0,HUMBERTO 1°,2161,2020-02-06,HUMBERTO 1° 2161,-34.621740,-58.396414,4326
48,60,21,144315.0,LAFUENTE,588,2020-02-06,LAFUENTE 588,-34.637203,-58.465264,4326
65,082A,22,134807.0,YERBAL,2335,2020-02-06,YERBAL 2335,-34.627313,-58.462265,4326
40,143,11,154850.0,SENILLOSA,464,2020-02-06,SENILLOSA 464,-34.621836,-58.429224,4326
2,8,3,216104.0,DE MAYO AV.,860,2020-02-06,DE MAYO AV. 860,-34.608932,-58.378573,4326
37,045A,37,409502.0,DE LOS INCAS AV.,3489,2020-02-06,DE LOS INCAS AV. 3489,-34.574046,-58.462413,4326
30,83,18,182903.0,DEAN FUNES,1126,2020-02-06,DEAN FUNES 1126,-34.623377,-58.405889,4326
39,69,14,325711.0,VIDAL,2042,2020-02-07,VIDAL 2042,-34.564762,-58.459916,4326
45,31,18,176614.0,ROJAS,335,2020-02-07,ROJAS 335,-34.616904,-58.442906,4326
48,15,6,146077.0,"BUSTILLO, JOSE M., Gral.",3308,2020-02-07,"BUSTILLO, JOSE M., Gral. 3308",-34.641683,-58.465430,4326
7,48,012C,451399.0,JUNCAL,1308,2020-02-07,JUNCAL 1308,-34.592853,-58.385997,4326
47,190,015A,225036.0,"FRIAS, EUSTOQUIO, TTE. GENERAL",358,2020-02-07,"FRIAS, EUSTOQUIO, TTE. GENERAL 358",-34.601913,-58.433991,4326
37,2,23,406531.0,"LACROZE, FEDERICO AV.",3825,2020-02-07,"LACROZE, FEDERICO AV. 3825",-34.583606,-58.453066,4326
17,67,20,171287.0,DIAZ VELEZ AV.,4051,2020-02-07,DIAZ VELEZ AV. 4051,-34.608528,-58.423850,4326
22,4,8,182403.0,JUJUY AV.,1220,2020-02-07,JUJUY AV. 1220,-34.624145,-58.401981,4326
11,44,8,440530.0,"URIBURU JOSE E., Pres.",1085,2020-02-07,"URIBURU JOSE E., Pres. 1085",-34.595693,-58.398541,4326
34,8,21,107857.0,ROMERO,433,2020-02-07,ROMERO 433,-34.652556,-58.415398,4326
79,99,8,260497.0,ALVAREZ JONTE AV.,3790,2020-02-07,ALVAREZ JONTE AV. 3790,-34.613831,-58.494407,4326
1,42,4,220121.0,"PERON, JUAN DOMINGO, TTE. GENERAL",338,2020-02-07,"PERON, JUAN DOMINGO, TTE. GENERAL 338",-34.605484,-58.371573,4326
87,91,34,278635.0,NOGOYA,4649,2020-02-07,NOGOYA 4649,-34.613405,-58.509666,4326
47,022A,14,229695.0,BATALLA DEL PARI,695,2020-02-07,BATALLA DEL PARI 695,-34.600852,-58.454419,4326
39,62,005A,325684.0,CONESA,2041,2020-02-07,CONESA 2041,-34.565880,-58.461827,4326
39,88,1,325197.0,CIUDAD DE LA PAZ,1898,2020-02-07,CIUDAD DE LA PAZ 1898,-34.564623,-58.455994,4326
48,73,001A,146753.0,ARROTEA,805,2020-02-07,ARROTEA 805,-34.639240,-58.460143,4326
48,112D,14,141883.0,"NAON, JUAN JOSE",785,2020-02-07,"NAON, JUAN JOSE 785",-34.636991,-58.456409,4326
30,34,028B,184346.0,CONSTITUCION,3227,2020-02-07,CONSTITUCION 3227,-34.627440,-58.410623,4326
17,66,38,171278.0,"ACUÑA DE FIGUEROA, FRANCISCO",140,2020-02-07,"ACUÑA DE FIGUEROA, FRANCISCO 140",-34.609407,-58.422954,4326
24,95,36,101630.0,VELEZ SARSFIELD AV.,67,2020-02-07,VELEZ SARSFIELD AV. 67,-34.635026,-58.390392,4326
33,8,13,401064.0,"ARENAL, CONCEPCION",4022,2020-02-07,"ARENAL, CONCEPCION 4022",-34.589189,-58.448701,4326
45,8,24,177974.0,BOGOTA,903,2020-02-07,BOGOTA 903,-34.617887,-58.444323,4326
11,56,23,440428.0,ARENALES,2047,2020-02-07,ARENALES 2047,-34.594496,-58.396504,4326
45,57,4,176000.0,PLANES,758,2020-02-07,PLANES 758,-34.609828,-58.443175,4326
48,16,020A,147677.0,"MARTI, JOSE",944,2020-02-07,"MARTI, JOSE 944",-34.642157,-58.466558,4326
65,120B,20,134090.0,YERBAL,2025,2020-02-07,YERBAL 2025,-34.626040,-58.458665,4326
45,033B,14,176679.0,ROJAS,481,2020-02-07,ROJAS 481,Sin dato,Sin dato,Sin dato
57,99,006A,131081.0,PAYSANDU,1043,2020-02-07,PAYSANDU 1043,-34.611815,-58.453149,4326
11,28,021C,448254.0,PUEYRREDON AV.,2422,2020-02-08,PUEYRREDON AV. 2422,-34.586160,-58.394779,4326
37,079B,15,409433.0,ELCANO AV.,3127,2020-02-08,ELCANO AV. 3127,-34.572296,-58.459054,4326
22,39,13,180972.0,PASCO,1438,2020-02-08,PASCO 1438,-34.625992,-58.395620,4326
35,32,32,403540.0,HONDURAS,5709,2020-02-08,HONDURAS 5709,-34.583207,-58.437433,4326
23,119,18,412904.0,MIGUELETES,731,2020-02-08,MIGUELETES 731,-34.566858,-58.433332,4326
19,164,18,425018.0,"SALGUERO, JERONIMO",1916,2020-02-08,"SALGUERO, JERONIMO 1916",-34.587965,-58.414410,4326
47,072A,22,228292.0,HIDALGO,1390,2020-02-08,HIDALGO 1390,-34.604405,-58.443522,4326
35,108,004A,405602.0,CABILDO AV.,336,2020-02-08,CABILDO AV. 336,-34.572586,-58.440117,4326
15,013A,005B,447473.0,SANTA FE AV.,3248,2020-02-08,SANTA FE AV. 3248,-34.588739,-58.410708,4326
48,4,32,146498.0,PORTELA,864,2020-02-08,PORTELA 864,-34.642019,-58.468412,4326
15,28,5,446336.0,BILLINGHURST,2134,2020-02-08,BILLINGHURST 2134,-34.586897,-58.407197,4326
48,133,16,141276.0,"BONIFACIO, JOSE",2177,2020-02-08,"BONIFACIO, JOSE 2177",-34.631310,-58.457831,4326
48,17,038B,146040.0,QUIRNO,755,2020-02-08,QUIRNO 755,-34.640603,-58.466593,4326
22,19,5,181764.0,"CALVO, CARLOS",2452,2020-02-08,"CALVO, CARLOS 2452",-34.620985,-58.400348,4326
30,35,51,184315.0,24 DE NOVIEMBRE,1239,2020-02-08,24 DE NOVIEMBRE 1239,-34.625481,-58.410357,4326
23,106,019A,415757.0,SAN BENITO DE PALERMO,1618,2020-02-08,SAN BENITO DE PALERMO 1618,-34.567574,-58.432558,4326
30,90,016B,182742.0,CATAMARCA,1562,2020-02-08,CATAMARCA 1562,-34.628281,-58.402445,4326
15,32,018A,447454.0,BILLINGHURST,2560,2020-02-08,BILLINGHURST 2560,-34.582621,-58.403366,4326
30,97,7,182436.0,INDEPENDENCIA AV.,2736,2020-02-08,INDEPENDENCIA AV. 2736,-34.619068,-58.404209,4326
9,21,23,207064.0,PASO,505,2020-02-08,PASO 505,-34.603253,-58.403582,4326
19,130,16,426151.0,PARAGUAY,4023,2020-02-08,PARAGUAY 4023,-34.588117,-58.419668,4326
31,16,25,421503.0,"SCALABRINI ORTIZ, RAUL AV.",484,2020-02-08,"SCALABRINI ORTIZ, RAUL AV. 484",-34.598543,-58.436860,4326
47,95,15,228220.0,HIDALGO,1707,2020-02-08,HIDALGO 1707,-34.601973,-58.445745,4326
15,46,13,444120.0,BILLINGHURST,1663,2020-02-08,BILLINGHURST 1663,-34.591483,-58.410978,4326
42,92,038A,149640.0,"MARTINEZ, VICTOR",45,2020-02-08,"MARTINEZ, VICTOR 45",-34.623012,-58.445489,4326
21,075A,22,430438.0,CERVIÑO AV.,3981,2020-02-08,CERVIÑO AV. 3981,-34.578294,-58.414326,4326
30,85,26,182814.0,"CALVO, CARLOS",2875,2020-02-08,"CALVO, CARLOS 2875",-34.621686,-58.405707,4326
37,146,28,410541.0,CIUDAD DE LA PAZ,1544,2020-02-08,CIUDAD DE LA PAZ 1544,-34.567393,-58.453303,4326
17,064A,9,170813.0,LEZICA,3960,2020-02-08,LEZICA 3960,-34.611008,-58.422170,4326
21,105,001A,431187.0,CAVIA,2995,2020-02-09,CAVIA 2995,-34.577352,-58.407143,4326
47,125,16,227170.0,ITURRI,131,2020-02-09,ITURRI 131,-34.594267,-58.452721,4326
39,84,022F,375887.0,JURAMENTO AV.,2611,2020-02-09,JURAMENTO AV. 2611,-34.563245,-58.458821,4326
5,32,13,222288.0,PARANA,571,2020-02-09,PARANA 571,-34.602096,-58.387958,4326
49,7,32,242315.0,"ALVAREZ, DONATO, Tte. Gral. AV.",2620,2020-02-09,"ALVAREZ, DONATO, Tte. Gral. AV. 2620",-34.594137,-58.468821,4326
1,13,031A,223758.0,MAIPU,456,2020-02-09,MAIPU 456,-34.602858,-58.376723,4326
30,11,25,185184.0,"GARAY, JUAN DE AV.",3455,2020-02-09,"GARAY, JUAN DE AV. 3455",-34.630791,-58.413936,4326
30,38,12,184232.0,24 DE NOVIEMBRE,1133,2020-02-09,24 DE NOVIEMBRE 1133,-34.624090,-58.410503,4326
15,51,22,446094.0,JUNCAL,2995,2020-02-09,JUNCAL 2995,-34.587272,-58.407323,4326
39,63,013B,365817.0,JURAMENTO,2965,2020-02-09,JURAMENTO 2965,-34.565073,-58.461902,4326
93,179,9,303164.0,"BEIRO, FRANCISCO AV.",5408,2020-02-09,"BEIRO, FRANCISCO AV. 5408",-34.615067,-58.526383,4326
11,27,8,442694.0,PUEYRREDON AV.,2421,2020-02-09,PUEYRREDON AV. 2421,-34.586254,-58.394597,4326
39,81,009A,367150.0,MOLDES,1811,2020-02-09,MOLDES 1811,-34.566290,-58.457145,4326
3,52,001J,450083.0,TRES SARGENTOS,414,2020-02-09,TRES SARGENTOS 414,-34.597962,-58.373161,4326
7,21,021A,452877.0,MONTEVIDEO,1462,2020-02-09,MONTEVIDEO 1462,-34.592765,-58.389459,4326
7,28,21,452034.0,MONTEVIDEO,955,2020-02-09,MONTEVIDEO 955,-34.597856,-58.389705,4326
5,34,024E,222337.0,VIAMONTE,1453,2020-02-09,VIAMONTE 1453,-34.600580,-58.387458,4326
45,146,24,173841.0,ESCRIBANO,73,2020-02-09,ESCRIBANO 73,-34.610616,-58.431519,4326
45,005B,16,177429.0,"LORA, FELIX",18,2020-02-09,"LORA, FELIX 18",-34.621092,-58.443678,4326
45,60,001A,176225.0,"GALLARDO, ANGEL AV.",1008,2020-02-09,"GALLARDO, ANGEL AV. 1008",-34.607046,-58.444303,4326
83,150,4,309287.0,"LAMARCA, EMILIO",4346,2020-02-09,"LAMARCA, EMILIO 4346",-34.594703,-58.509125,4326
15,71,1,445934.0,"PACHECO DE MELO, JOSE ANDRES",2806,2020-02-09,"PACHECO DE MELO, JOSE ANDRES 2806",-34.585942,-58.402868,4326
15,30,19,446379.0,"DIAZ, CNEL. AV.",2437,2020-02-09,"DIAZ, CNEL. AV. 2437",-34.584483,-58.406767,4326
1,54,1,220088.0,"ALEM, LEANDRO N. AV.",592,2020-02-09,"ALEM, LEANDRO N. AV. 592",-34.600779,-58.370784,4326
11,76,6,440073.0,SANTA FE AV.,1844,2020-02-09,SANTA FE AV. 1844,-34.595912,-58.394011,4326
45,3,0FRF,177947.0,"GARCIA LORCA, FEDERICO",350,2020-02-10,"GARCIA LORCA, FEDERICO 350",-34.617957,-58.445535,4326
39,17,007A,325577.0,"MARTINEZ, ENRIQUE, GRAL.",2015,2020-02-10,"MARTINEZ, ENRIQUE, GRAL. 2015",-34.569892,-58.467888,4326
23,2,059A,410835.0,SANTA FE AV.,4923,2020-02-10,SANTA FE AV. 4923,-34.577074,-58.429556,4326
81,102,6,308257.0,TINOGASTA,3750,2020-02-10,TINOGASTA 3750,-34.604156,-58.501696,4326
48,144,025A,149753.0,LAUTARO,135,2020-02-10,LAUTARO 135,-34.628814,-58.457016,4326
23,64,12,412230.0,O'HIGGINS,1725,2020-02-10,O'HIGGINS 1725,-34.563293,-58.449933,4326
81,52,9,268420.0,"BEIRO, FRANCISCO AV.",4038,2020-02-10,"BEIRO, FRANCISCO AV. 4038",-34.604055,-58.508718,4326
8,20,2,111413.0,"GARCIA, MARTIN AV.",626,2020-02-10,"GARCIA, MARTIN AV. 626",-34.632117,-58.373075,4326
11,28,27,442842.0,PUEYRREDON AV.,2436,2020-02-10,PUEYRREDON AV. 2436,-34.586059,-58.394573,4326
87,086B,18,278355.0,"JUAREZ, BENITO",2313,2020-02-10,"JUAREZ, BENITO 2313",-34.618131,-58.505822,4326
41,64,011D,376619.0,"BALBIN, RICARDO, DR. AV.",2711,2020-02-10,"BALBIN, RICARDO, DR. AV. 2711",-34.561036,-58.469004,4326
74,88,001B,15968.0,"SCHMIDL, ULRICO",6615,2020-02-10,"SCHMIDL, ULRICO 6615",-34.651891,-58.512874,4326
48,154B,10,140667.0,LAUTARO,172,2020-02-10,LAUTARO 172,-34.629193,-58.456720,4326
8,20,018A,111429.0,AZARA,41,2020-02-10,AZARA 41,-34.632327,-58.372672,4326
22,2,26,182183.0,PAVON,2545,2020-02-10,PAVON 2545,-34.627335,-58.400702,4326
5,054A,028L,223730.0,CORRIENTES AV.,1131,2020-02-10,CORRIENTES AV. 1131,-34.603689,-58.382781,4326
9,21,29,207089.0,LARREA,562,2020-02-10,LARREA 562,-34.602544,-58.402331,4326
61,196,9,244425.0,TRIUNVIRATO AV.,4060,2020-02-10,TRIUNVIRATO AV. 4060,-34.579400,-58.478207,4326
87,61,21,310829.0,"MATURANA, JOSE DE",4887,2020-02-10,"MATURANA, JOSE DE 4887",-34.618406,-58.509512,4326
37,152,13,410077.0,CESPEDES,2442,2020-02-10,CESPEDES 2442,-34.568912,-58.448532,4326
7,52,014A,451488.0,LIBERTAD,1340,2020-02-10,LIBERTAD 1340,Sin dato,Sin dato,Sin dato
35,96,5,406144.0,ZAPATA,522,2020-02-10,ZAPATA 522,-34.572136,-58.443233,4326
53,50,22,345403.0,MONROE,4525,2020-02-11,MONROE 4525,-34.570748,-58.480371,4326
24,65,31,100653.0,RONDEAU,2527,2020-02-11,RONDEAU 2527,-34.634542,-58.398378,4326
11,8,41,442736.0,LARREA,1362,2020-02-11,LARREA 1362,-34.591289,-58.399514,4326
17,69,45,171392.0,"ACUÑA DE FIGUEROA, FRANCISCO",444,2020-02-11,"ACUÑA DE FIGUEROA, FRANCISCO 444",-34.605399,-58.422857,4326
5,71,23,221326.0,CORRIENTES AV.,961,2020-02-11,CORRIENTES AV. 961,-34.603553,-58.380438,4326
25,14,14,336320.0,VUELTA DE OBLIGADO,2427,2020-02-11,VUELTA DE OBLIGADO 2427,-34.558393,-58.458321,4326
87,001A,20,287150.0,"VERDI, JOSE",1789,2020-02-11,"VERDI, JOSE 1789",-34.623026,-58.511874,4326
22,55,000C,185943.0,SARANDI,1420,2020-02-11,SARANDI 1420,-34.625882,-58.393347,4326
20,63,3,200370.0,MORENO,1914,2020-02-11,MORENO 1914,Sin dato,Sin dato,Sin dato
35,102,39,404210.0,"CARRANZA, ANGEL JUSTINIANO",2278,2020-02-11,"CARRANZA, ANGEL JUSTINIANO 2278",-34.578049,-58.433298,4326
22,55,000E,185945.0,COMBATE DE LOS POZOS,1425,2020-02-11,COMBATE DE LOS POZOS 1425,-34.625717,-58.392518,4326
9,41,16,206611.0,AZCUENAGA,767,2020-02-11,AZCUENAGA 767,-34.600183,-58.400992,4326
2,23,21,215742.0,PERU,353,2020-02-11,PERU 353,-34.612153,-58.374788,4326
30,55,5,183810.0,INDEPENDENCIA AV.,3190,2020-02-11,INDEPENDENCIA AV. 3190,-34.620381,-58.410577,4326
13,99,5,190066.0,LAVALLE,2756,2020-02-11,LAVALLE 2756,-34.603269,-58.405925,4326
6,41,17,120363.0,"BROWN, ALTE. AV.",768,2020-02-11,"BROWN, ALTE. AV. 768",-34.631494,-58.361422,4326
19,160,20,431932.0,CHARCAS,4743,2020-02-11,CHARCAS 4743,-34.581004,-58.426616,4326
5,73,20,221394.0,TUCUMAN,987,2020-02-11,TUCUMAN 987,-34.601310,-58.380739,4326
3,28,026A,450482.0,"ALVEAR, MARCELO T. De",865,2020-02-11,"ALVEAR, MARCELO T. De 865",-34.596420,-58.379356,4326
40,003D,13,160170.0,ESTRADA,1099,2020-02-11,ESTRADA 1099,-34.633450,-58.440054,4326
1,23,4,220762.0,VIAMONTE,638,2020-02-11,VIAMONTE 638,-34.599901,-58.375908,4326
13,99,10,190061.0,BOULOGNE SUR MER,569,2020-02-12,BOULOGNE SUR MER 569,-34.603509,-58.406364,4326
17,60,14,171869.0,ESTADO DE PALESTINA,775,2020-02-12,ESTADO DE PALESTINA 775,-34.601787,-58.425467,4326
48,127,26,141456.0,CAMACUA,839,2020-02-12,CAMACUA 839,-34.636659,-58.454457,4326
39,92,005E,375267.0,OLAZABAL,2594,2020-02-12,OLAZABAL 2594,-34.561239,-58.460040,4326
45,133A,24,174364.0,"ACEVEDO, EDUARDO",560,2020-02-12,"ACEVEDO, EDUARDO 560",-34.609450,-58.432674,4326
7,29,28,452070.0,"ALVEAR, MARCELO T. De",1553,2020-02-12,"ALVEAR, MARCELO T. De 1553",-34.597117,-58.389009,4326
28,58,6,193283.0,BELGRANO AV.,2940,2020-02-12,BELGRANO AV. 2940,-34.614985,-58.407000,4326
22,49,39,180654.0,SARANDI,1235,2020-02-12,SARANDI 1235,-34.623305,-58.393765,4326
19,107,17,427255.0,SOLER,4629,2020-02-12,SOLER 4629,-34.587174,-58.424548,4326
15,8,2,444807.0,"MANSILLA, LUCIO NORBERTO, GENERAL",3410,2020-02-12,"MANSILLA, LUCIO NORBERTO, GENERAL 3410",-34.592211,-58.413121,4326
41,135,6,329356.0,IBERA,2674,2020-02-12,IBERA 2674,-34.554841,-58.466850,4326
31,78,33,422412.0,LERMA,630,2020-02-12,LERMA 630,-34.592956,-58.433246,4326
21,34,22,432187.0,JUNCAL,3621,2020-02-12,JUNCAL 3621,-34.583243,-58.413635,4326
23,55,001A,416081.0,ARCOS,1698,2020-02-12,ARCOS 1698,-34.564304,-58.450526,4326
30,55,017A,185581.0,24 DE NOVIEMBRE,882,2020-02-12,24 DE NOVIEMBRE 882,-34.621272,-58.410717,4326
59,170,32,231600.0,CUCHA CUCHA,1232,2020-02-13,CUCHA CUCHA 1232,-34.607718,-58.451282,4326
49,39,22,313680.0,TRIUNVIRATO AV.,3735,2020-02-13,TRIUNVIRATO AV. 3735,-34.581503,-58.474050,4326
39,82,001D,365654.0,AMENABAR,1990,2020-02-13,AMENABAR 1990,-34.564304,-58.457622,4326
20,53,8,200744.0,REPUBLICA BOLIVARIANA DE VENEZUELA,2054,2020-02-13,REPUBLICA BOLIVARIANA DE VENEZUELA 2054,-34.615242,-58.395381,4326
11,82,012I,447026.0,"LOPEZ, VICENTE",1853,2020-02-13,"LOPEZ, VICENTE 1853",Sin dato,Sin dato,Sin dato
15,124,20,441588.0,PARAGUAY,2727,2020-02-13,PARAGUAY 2727,-34.596832,-58.406746,4326
11,85,001G,448022.0,POSADAS,1560,2020-02-13,POSADAS 1560,-34.587075,-58.387992,4326
7,26,16,452494.0,RODRIGUEZ PEÑA,2025,2020-02-13,RODRIGUEZ PEÑA 2025,-34.587872,-58.385795,4326
19,4,13,425059.0,GASCON,1155,2020-02-13,GASCON 1155,-34.597001,-58.423209,4326
30,87,25,183093.0,"GARAY, JUAN DE AV.",2707,2020-02-13,"GARAY, JUAN DE AV. 2707",-34.628767,-58.402552,4326
79,58,14,261701.0,BAHIA BLANCA,1890,2020-02-14,BAHIA BLANCA 1890,-34.616883,-58.494567,4326
9,12,012B,207593.0,"MITRE, BARTOLOME",2665,2020-02-14,"MITRE, BARTOLOME 2665",-34.608702,-58.404249,4326
21,60,22,429863.0,CABELLO,3309,2020-02-14,CABELLO 3309,-34.581579,-58.407839,4326
30,40,26,184183.0,24 DE NOVIEMBRE,947,2020-02-14,24 DE NOVIEMBRE 947,-34.622023,-58.410761,4326
28,25,4,194359.0,RIVADAVIA AV.,3428,2020-02-14,RIVADAVIA AV. 3428,-34.610835,-58.414807,4326
40,6,3,159918.0,DIRECTORIO AV.,1030,2020-02-14,DIRECTORIO AV. 1030,-34.629291,-58.442029,4326
20,56,036A,200653.0,SARANDI,247,2020-02-14,SARANDI 247,-34.612235,-58.394798,4326
7,24,020A,452448.0,MONTEVIDEO,1708,2020-02-14,MONTEVIDEO 1708,-34.590630,-58.386844,4326
15,21,11,444372.0,"DIAZ, CNEL. AV.",1511,2020-02-14,"DIAZ, CNEL. AV. 1511",-34.592955,-58.413334,4326
7,7,29,452661.0,"LOPEZ, VICENTE",1702,2020-02-14,"LOPEZ, VICENTE 1702",-34.591649,-58.390078,4326
15,63,30,443866.0,GALLO,1560,2020-02-14,GALLO 1560,-34.592080,-58.409376,4326
79,71,24,261298.0,BAHIA BLANCA,1871,2020-02-14,BAHIA BLANCA 1871,-34.616930,-58.494381,4326
27,4,37,337297.0,VUELTA DE OBLIGADO,2880,2020-02-14,VUELTA DE OBLIGADO 2880,-34.554112,-58.462055,4326
48,110E,12,142671.0,ROBERTSON,956,2020-02-14,ROBERTSON 956,-34.639250,-58.455147,4326
15,86,002B,443650.0,SANTA FE AV.,2941,2020-02-14,SANTA FE AV. 2941,-34.591312,-58.407368,4326
11,61,36,442168.0,AYACUCHO,1760,2020-02-14,AYACUCHO 1760,-34.589573,-58.391444,4326
75,75,4,364563.0,"ARTIGAS, JOSE GERVASIO, GRAL.",5540,2020-02-14,"ARTIGAS, JOSE GERVASIO, GRAL. 5540",-34.576782,-58.503798,4326
15,013A,30,444994.0,"DIAZ, CNEL. AV.",1830,2020-02-14,"DIAZ, CNEL. AV. 1830",-34.589905,-58.410915,4326
22,44,40,180809.0,RINCON,923,2020-02-14,RINCON 923,-34.619891,-58.395947,4326
19,141,012C,428085.0,"BORGES, JORGE LUIS",2240,2020-02-14,"BORGES, JORGE LUIS 2240",-34.584306,-58.423873,4326
33,74,0,415299.0,ALVAREZ THOMAS AV.,114,2020-02-14,ALVAREZ THOMAS AV. 114,-34.582403,-58.446401,4326
47,76,26,228420.0,GALICIA,259,2020-02-14,GALICIA 259,-34.602450,-58.446338,4326
15,79,3,443430.0,"CABRERA, JOSE A.",3118,2020-02-15,"CABRERA, JOSE A. 3118",-34.596977,-58.410682,4326
37,30,37,408842.0,ELCANO AV.,3573,2020-02-15,ELCANO AV. 3573,-34.577720,-58.460094,4326
22,51,16,180564.0,RINCON,1062,2020-02-15,RINCON 1062,-34.621288,-58.395669,4326
21,36,8,429428.0,FRENCH,3547,2020-02-15,FRENCH 3547,-34.583429,-58.411163,4326
16,65,018C,119177.0,HERRERA,571,2020-02-15,HERRERA 571,-34.636335,-58.378316,4326
41,123,001A,328832.0,QUESADA,2710,2020-02-15,QUESADA 2710,-34.556028,-58.466348,4326
21,95,010A,432352.0,GODOY CRUZ,3252,2020-02-15,GODOY CRUZ 3252,-34.573123,-58.421041,4326
19,40,17,424065.0,"SALGUERO, JERONIMO",1429,2020-02-15,"SALGUERO, JERONIMO 1429",-34.593690,-58.418165,4326
47,101,27,226689.0,DARWIN,180,2020-02-15,DARWIN 180,-34.597425,-58.449760,4326
57,100,002H,130007.0,ESPINOSA,79,2020-02-15,ESPINOSA 79,Sin dato,Sin dato,Sin dato
31,104,7,421782.0,MALABIA,1349,2020-02-15,MALABIA 1349,-34.592547,-58.429632,4326
13,3,9,192665.0,"PERON, JUAN DOMINGO, TTE. GENERAL",3670,2020-02-15,"PERON, JUAN DOMINGO, TTE. GENERAL 3670",-34.606865,-58.418176,4326
69,19,4,254459.0,NAZCA AV.,2726,2020-02-15,NAZCA AV. 2726,-34.604454,-58.487453,4326
30,96,40,182509.0,JUJUY AV.,971,2020-02-15,JUJUY AV. 971,-34.620714,-58.403036,4326
43,103,24,334480.0,ARIAS,3115,2020-02-15,ARIAS 3115,-34.544599,-58.480412,4326
1,1,17,221019.0,RIVADAVIA AV.,851,2020-02-15,RIVADAVIA AV. 851,-34.608229,-58.378597,4326
22,8,41,182316.0,SAAVEDRA,931,2020-02-16,SAAVEDRA 931,-34.620148,-58.402106,4326
11,84,2,441933.0,ALVEAR AV.,1848,2020-02-16,ALVEAR AV. 1848,-34.588097,-58.388682,4326
49,58,003C,240890.0,ALVAREZ THOMAS AV.,2128,2020-02-16,ALVAREZ THOMAS AV. 2128,-34.578280,-58.471180,4326
37,2,18,406537.0,"LACROZE, FEDERICO AV.",3887,2020-02-16,"LACROZE, FEDERICO AV. 3887",-34.584108,-58.453391,4326
15,115,024B,442963.0,PARAGUAY,2829,2020-02-16,PARAGUAY 2829,-34.596436,-58.407695,4326
7,9,11,452713.0,CALLAO AV.,1759,2020-02-16,CALLAO AV. 1759,-34.589603,-58.389371,4326
23,7,16,411000.0,"DUMONT, SANTOS",2312,2020-02-16,"DUMONT, SANTOS 2312",-34.572823,-58.437824,4326
48,100B,12,143135.0,"EGUIA, MANUEL",976,2020-02-16,"EGUIA, MANUEL 976",-34.640016,-58.455761,4326
30,75,20,183280.0,"CALVO, CARLOS",2943,2020-02-16,"CALVO, CARLOS 2943",-34.621860,-58.406648,4326
43,185,008C,378222.0,SAN ISIDRO LABRADOR AV.,4325,2020-02-16,SAN ISIDRO LABRADOR AV. 4325,-34.544581,-58.472889,4326
3,32,1,450562.0,ARROYO,804,2020-02-16,ARROYO 804,Sin dato,Sin dato,Sin dato
4,16,31,210950.0,HUMBERTO 1°,613,2020-02-16,HUMBERTO 1° 613,-34.620733,-58.374480,4326
48,59,8,144344.0,REMEDIOS,2764,2020-02-16,REMEDIOS 2764,Sin dato,Sin dato,Sin dato
8,51,0FRB,118523.0,"GARCIA, MARTIN AV.",464,2020-02-16,"GARCIA, MARTIN AV. 464",-34.630267,-58.371300,4326
49,048A,27,241467.0,COMBATIENTES DE MALVINAS AV.,3410,2020-02-16,COMBATIENTES DE MALVINAS AV. 3410,-34.579541,-58.475949,4326
23,55,15,412077.0,"HERNANDEZ, JOSE",2346,2020-02-16,"HERNANDEZ, JOSE 2346",-34.565357,-58.452609,4326
14,49,35,212290.0,SALTA,935,2020-02-16,SALTA 935,-34.619031,-58.383028,4326
15,29,028A,446360.0,BILLINGHURST,2272,2020-02-16,BILLINGHURST 2272,-34.585702,-58.406135,4326
9,49,31,206299.0,VIAMONTE,2213,2020-02-16,VIAMONTE 2213,-34.601046,-58.398943,4326
22,8,31,182306.0,"CALVO, CARLOS",2601,2020-02-16,"CALVO, CARLOS 2601",-34.621026,-58.401949,4326
17,81,20,171071.0,HUMAHUACA,4056,2020-02-16,HUMAHUACA 4056,-34.601820,-58.421675,4326
74,015B,11,79852.0,"ALBERDI, JUAN BAUTISTA AV.",7277,2020-02-16,"ALBERDI, JUAN BAUTISTA AV. 7277",-34.660686,-58.515365,4326
48,42,12,144725.0,CASTAÑON,813,2020-02-16,CASTAÑON 813,-34.639650,-58.463148,4326
14,16,27,213466.0,HUMBERTO 1°,1677,2020-02-16,HUMBERTO 1° 1677,-34.621404,-58.389662,4326
53,120,7,372692.0,TRONADOR,2655,2020-02-16,TRONADOR 2655,-34.566330,-58.476713,4326
11,15,20,440925.0,LARREA,1043,2020-02-16,LARREA 1043,-34.595728,-58.401370,4326
39,54,013A,325367.0,ZAPIOLA,1941,2020-02-16,ZAPIOLA 1941,-34.567469,-58.462021,4326
15,87,10,443682.0,"QUINQUELA MARTIN, BENITO",1879,2020-02-16,"QUINQUELA MARTIN, BENITO 1879",-34.643635,-58.375865,4326
20,9,1,202146.0,SAAVEDRA,209,2020-02-16,SAAVEDRA 209,-34.612467,-58.403274,4326
23,93,20,412872.0,SOLDADO DE LA INDEPENDENCIA,716,2020-02-16,SOLDADO DE LA INDEPENDENCIA 716,-34.567807,-58.434073,4326
21,25,2,429622.0,JUNCAL,3620,2020-02-17,JUNCAL 3620,-34.583321,-58.413711,4326
20,16,11,201892.0,MORENO,2532,2020-02-17,MORENO 2532,Sin dato,Sin dato,Sin dato
11,44,27,440511.0,"ALVEAR, MARCELO T. De",2153,2020-02-17,"ALVEAR, MARCELO T. De 2153",-34.597094,-58.398242,4326
22,20,30,181755.0,MATHEU,951,2020-02-17,MATHEU 951,-34.620343,-58.399944,4326
19,23,41,424043.0,BULNES,1430,2020-02-17,BULNES 1430,-34.595203,-58.416733,4326
15,83,3,443576.0,CHARCAS,3034,2020-02-17,CHARCAS 3034,-34.592964,-58.408877,4326
40,148,006A,161973.0,SENILLOSA,6,2020-02-17,SENILLOSA 6,-34.615781,-58.430099,4326
31,99,45,420781.0,LAVALLEJA,1286,2020-02-17,LAVALLEJA 1286,-34.595074,-58.425712,4326
22,20,31,181756.0,MATHEU,947,2020-02-17,MATHEU 947,-34.620264,-58.399951,4326
22,29,001A,185768.0,INDEPENDENCIA AV.,2314,2020-02-17,INDEPENDENCIA AV. 2314,-34.618631,-58.399113,4326
5,41,002A,222090.0,VIAMONTE,1326,2020-02-17,VIAMONTE 1326,-34.600578,-58.385813,4326
39,80,5,326875.0,MONROE,2764,2020-02-17,MONROE 2764,-34.560265,-58.463246,4326
11,44,25,440513.0,"ALVEAR, MARCELO T. De",2171,2020-02-17,"ALVEAR, MARCELO T. De 2171",-34.597071,-58.398417,4326
22,39,22,180981.0,PAVON,2179,2020-02-17,PAVON 2179,-34.626726,-58.395319,4326
47,102,22,226728.0,HUMBOLDT,134,2020-02-17,HUMBOLDT 134,-34.597007,-58.450874,4326
5,42,038A,223746.0,TALCAHUANO,750,2020-02-17,TALCAHUANO 750,-34.599892,-58.385533,4326
19,137,31,426537.0,"SCALABRINI ORTIZ, RAUL AV.",2102,2020-02-17,"SCALABRINI ORTIZ, RAUL AV. 2102",-34.587640,-58.420109,4326
27,046A,12,336875.0,O'HIGGINS,2613,2020-02-17,O'HIGGINS 2613,-34.554913,-58.457159,4326
47,60,20,227606.0,"DUMONT, SANTOS",4781,2020-02-17,"DUMONT, SANTOS 4781",-34.595470,-58.456682,4326
11,73,19,440243.0,AYACUCHO,1239,2020-02-18,AYACUCHO 1239,-34.594166,-58.395771,4326
15,58,005I,447134.0,CABELLO,3090,2020-02-18,CABELLO 3090,-34.582442,-58.405436,4326
22,33,38,181226.0,PASCO,1285,2020-02-18,PASCO 1285,-34.624020,-58.396094,4326
9,41,001A,206626.0,CORDOBA AV.,2302,2020-02-18,CORDOBA AV. 2302,-34.599692,-58.400032,4326
1,8,031A,223894.0,VIAMONTE,839,2020-02-18,VIAMONTE 839,-34.600072,-58.378847,4326
3,47,002A,452925.0,JUNCAL,691,2020-02-18,JUNCAL 691,-34.592791,-58.376863,4326
42,49,12,139349.0,MALVINAS ARGENTINAS,440,2020-02-18,MALVINAS ARGENTINAS 440,-34.629540,-58.449665,4326
47,154,14,225831.0,PADILLA,677,2020-02-18,PADILLA 677,-34.599990,-58.442486,4326
17,105,17,170169.0,"SALGUERO, JERONIMO",551,2020-02-18,"SALGUERO, JERONIMO 551",-34.604129,-58.419569,4326
51,58,5,344868.0,BLANCO ENCALADA,4846,2020-02-18,BLANCO ENCALADA 4846,-34.574180,-58.483990,4326
23,20,28,415721.0,OLLEROS,2339,2020-02-18,OLLEROS 2339,-34.569668,-58.443428,4326
29,105,5,341097.0,VEDIA,1642,2020-02-18,VEDIA 1642,-34.536235,-58.467441,4326
67,110A,19,236646.0,GAVILAN,1610,2020-02-19,GAVILAN 1610,-34.611658,-58.469255,4326
30,49,13,183966.0,24 DE NOVIEMBRE,1268,2020-02-19,24 DE NOVIEMBRE 1268,-34.625805,-58.410207,4326
11,81,5,441862.0,"LOPEZ, VICENTE",1878,2020-02-19,"LOPEZ, VICENTE 1878",Sin dato,Sin dato,Sin dato
15,86,4,443659.0,ARENALES,2968,2020-02-19,ARENALES 2968,-34.590507,-58.406728,4326
35,107,30,416286.0,ZAPATA,211,2020-02-19,ZAPATA 211,-34.574348,-58.439740,4326
13,98,14,190041.0,"GOMEZ, VALENTIN",2875,2020-02-19,"GOMEZ, VALENTIN 2875",-34.605405,-58.406588,4326
43,175,27,332317.0,CIUDAD DE LA PAZ,3736,2020-02-19,CIUDAD DE LA PAZ 3736,-34.548031,-58.470315,4326
15,28,016B,447975.0,FRENCH,3152,2020-02-19,FRENCH 3152,-34.585938,-58.407225,4326
30,74,20,185890.0,HUMBERTO 1°,2979,2020-02-19,HUMBERTO 1° 2979,-34.623114,-58.406842,4326
1,56,001A,223496.0,"ALEM, LEANDRO N. AV.",790,2020-02-19,"ALEM, LEANDRO N. AV. 790",-34.598626,-58.371342,4326
53,72,3,345332.0,ROOSEVELT FRANKLIN D.,4336,2020-02-19,ROOSEVELT FRANKLIN D. 4336,-34.568762,-58.479316,4326
19,157,4,428442.0,GUEMES,4552,2020-02-19,GUEMES 4552,-34.581802,-58.423425,4326
43,176,19,332598.0,CIUDAD DE LA PAZ,3820,2020-02-19,CIUDAD DE LA PAZ 3820,-34.546925,-58.470829,4326
30,53,12,183847.0,24 DE NOVIEMBRE,1078,2020-02-19,24 DE NOVIEMBRE 1078,-34.623402,-58.410453,4326
21,41,7,429841.0,CABELLO,3352,2020-02-19,CABELLO 3352,-34.581548,-58.408285,4326
48,2,13,146575.0,"FERNANDEZ MORENO, BALDOMERO",3346,2020-02-19,"FERNANDEZ MORENO, BALDOMERO 3346",-34.643129,-58.466165,4326
5,10,32,222702.0,"MITRE, BARTOLOME",1617,2020-02-19,"MITRE, BARTOLOME 1617",-34.607805,-58.389556,4326
47,76,32,228414.0,HIDALGO,1702,2020-02-19,HIDALGO 1702,-34.602008,-58.445863,4326
5,69,21,221275.0,CARABELAS,237,2020-02-19,CARABELAS 237,-34.605682,-58.380248,4326
39,32,011C,325622.0,SUPERI,2083,2020-02-19,SUPERI 2083,-34.568080,-58.466295,4326
12,19,001C,219170.0,BELGRANO AV.,1548,2020-02-19,BELGRANO AV. 1548,-34.613657,-58.388097,4326
15,118,5,443106.0,ARENALES,2744,2020-02-19,ARENALES 2744,-34.592256,-58.404583,4326
48,138,7,141077.0,CAMACUA,724,2020-02-19,CAMACUA 724,-34.635356,-58.454981,4326
43,175,23,332321.0,CIUDAD DE LA PAZ,3714,2020-02-19,CIUDAD DE LA PAZ 3714,-34.548305,-58.470184,4326
7,24,6,452460.0,ALVEAR,1672,2020-02-19,ALVEAR 1672,Sin dato,Sin dato,Sin dato
35,066D,9,413727.0,"DUMONT, SANTOS",2715,2020-02-20,"DUMONT, SANTOS 2715",-34.576079,-58.441239,4326
31,89,19,421359.0,ARAOZ,1020,2020-02-20,ARAOZ 1020,Sin dato,Sin dato,Sin dato
12,21,28,217882.0,MORENO,1533,2020-02-20,MORENO 1533,Sin dato,Sin dato,Sin dato
15,94,015E,447585.0,AUSTRIA,2411,2020-02-20,AUSTRIA 2411,-34.585822,-58.400941,4326
20,33,28,201403.0,PICHINCHA,163,2020-02-20,PICHINCHA 163,-34.611481,-58.399057,4326
48,111B,5,141917.0,"ORTIZ, CARLOS",834,2020-02-20,"ORTIZ, CARLOS 834",-34.637282,-58.455717,4326
23,120,002A,415461.0,"NEWBERY, JORGE",1511,2020-02-20,"NEWBERY, JORGE 1511",-34.565814,-58.433606,4326
30,91,18,182705.0,CATAMARCA,1480,2020-02-20,CATAMARCA 1480,-34.627353,-58.402652,4326
55,170,17,357873.0,RUIZ HUIDOBRO AV.,4469,2020-02-20,RUIZ HUIDOBRO AV. 4469,-34.553480,-58.491771,4326
47,140,27,298725.0,DARWIN,376,2020-02-20,DARWIN 376,-34.595935,-58.447738,4326
43,112,16,331481.0,"LARRALDE, CRISOLOGO AV.",3083,2020-02-20,"LARRALDE, CRISOLOGO AV. 3083",-34.552234,-58.474205,4326
35,48,29,404431.0,"RAVIGNANI, EMILIO, Dr.",1802,2020-02-20,"RAVIGNANI, EMILIO, Dr. 1802",-34.580715,-58.438298,4326
11,50,37,442347.0,JUNIN,1580,2020-02-20,JUNIN 1580,-34.590384,-58.394396,4326
22,52,12,180524.0,RINCON,940,2020-02-20,RINCON 940,-34.620074,-58.395822,4326
19,135,22,425844.0,CHARCAS,3778,2020-02-20,CHARCAS 3778,-34.587743,-58.417764,4326
47,117,30,226319.0,GURRUCHAGA,180,2020-02-20,GURRUCHAGA 180,-34.599962,-58.445090,4326
48,110F,21,142714.0,ROBERTSON,987,2020-02-20,ROBERTSON 987,-34.639570,-58.454956,4326
39,54,2,325378.0,ECHEVERRIA,3024,2020-02-20,ECHEVERRIA 3024,-34.566491,-58.461756,4326
1,8,010F,223971.0,CORDOBA AV.,830,2020-02-20,CORDOBA AV. 830,-34.599011,-58.378778,4326
17,78,007B,178715.0,"PERON, JUAN DOMINGO, TTE. GENERAL",3966,2020-02-20,"PERON, JUAN DOMINGO, TTE. GENERAL 3966",-34.606051,-58.422256,4326
41,067B,1,329115.0,IBERA,3252,2020-02-20,IBERA 3252,-34.558179,-58.472901,4326
43,57,001C,331742.0,CONDE,3780,2020-02-20,CONDE 3780,-34.552157,-58.478255,4326
30,64,3,183586.0,HUMBERTO 1°,3020,2020-02-20,HUMBERTO 1° 3020,-34.623331,-58.407676,4326
39,24,1,325615.0,SUPERI,2002,2020-02-20,SUPERI 2002,-34.568731,-58.465876,4326
22,38,26,181023.0,RINCON,1597,2020-02-20,RINCON 1597,-34.627476,-58.394369,4326
30,33,34,184394.0,24 DE NOVIEMBRE,1445,2020-02-20,24 DE NOVIEMBRE 1445,-34.628102,-58.410096,4326
48,11,17,146244.0,PORTELA,184,2020-02-20,PORTELA 184,-34.634088,-58.472405,4326
41,158A,5,330104.0,"PEDRAZA, MANUELA",2450,2020-02-20,"PEDRAZA, MANUELA 2450",-34.552056,-58.466742,4326
30,79,37,183148.0,CONSTITUCION,2894,2020-02-20,CONSTITUCION 2894,-34.627014,-58.405228,4326
21,79,001A,430309.0,DEL LIBERTADOR AV.,3060,2020-02-20,DEL LIBERTADOR AV. 3060,-34.576735,-58.411633,4326
30,79,1,183149.0,DEAN FUNES,1418,2020-02-20,DEAN FUNES 1418,-34.627143,-58.405358,4326
22,56,22,180434.0,CONSTITUCION,1927,2020-02-20,CONSTITUCION 1927,-34.625279,-58.392866,4326
9,51,036A,205819.0,JUNIN,128,2020-02-20,JUNIN 128,-34.607859,-58.396463,4326
30,49,6,183958.0,24 DE NOVIEMBRE,1226,2020-02-21,24 DE NOVIEMBRE 1226,-34.625243,-58.410265,4326
45,142,13,173689.0,"ACEVEDO, EDUARDO",41,2020-02-21,"ACEVEDO, EDUARDO 41",-34.615084,-58.430752,4326
19,107,010A,431912.0,GUATEMALA,4682,2020-02-21,GUATEMALA 4682,-34.586462,-58.424378,4326
29,4,11,339535.0,CABILDO AV.,4039,2020-02-21,CABILDO AV. 4039,-34.546404,-58.470007,4326
5,52,033A,221621.0,LIBERTAD,201,2020-02-21,LIBERTAD 201,Sin dato,Sin dato,Sin dato
39,8,14,325045.0,LA PAMPA,3635,2020-02-21,LA PAMPA 3635,-34.571932,-58.466521,4326
48,123,32,141586.0,"BONORINO, ESTEBAN, Cnel. AV.",293,2020-02-21,"BONORINO, ESTEBAN, Cnel. AV. 293",-34.631379,-58.458322,4326
19,174,25,428566.0,URIARTE,2434,2020-02-21,URIARTE 2434,-34.581204,-58.423483,4326
10,8,12,123957.0,"MONTES DE OCA, MANUEL",1578,2020-02-21,"MONTES DE OCA, MANUEL 1578",-34.645338,-58.373207,4326
65,102,016L,134580.0,GAVILAN,418,2020-02-21,GAVILAN 418,-34.624279,-58.461764,4326
36,48,9,153095.0,TARIJA,4072,2020-02-21,TARIJA 4072,-34.629649,-58.421723,4326
19,83,14,427197.0,GURRUCHAGA,1867,2020-02-21,GURRUCHAGA 1867,-34.587695,-58.426569,4326
42,9,9,140069.0,"FALCON, RAMON L.,CNEL.",1874,2020-02-21,"FALCON, RAMON L.,CNEL. 1874",-34.628006,-58.455519,4326
30,54,4,183839.0,"CALVO, CARLOS",3195,2020-02-21,"CALVO, CARLOS 3195",-34.622613,-58.410456,4326
31,84,001I,423854.0,"JUSTO, JUAN B. AV.",1935,2020-02-21,"JUSTO, JUAN B. AV. 1935",-34.589466,-58.438620,4326
39,54,16,325385.0,"SUCRE, ANTONIO JOSE de, Mcal.",3061,2020-02-21,"SUCRE, ANTONIO JOSE de, Mcal. 3061",-34.567642,-58.461420,4326
42,52,045A,458054.0,MIRO,145,2020-02-21,MIRO 145,-34.625553,-58.449346,4326
1,6,017A,221151.0,SUIPACHA,517,2020-02-21,SUIPACHA 517,-34.602124,-58.379523,4326
45,158,3,174151.0,"GALLARDO, ANGEL AV.",118,2020-02-21,"GALLARDO, ANGEL AV. 118",-34.603164,-58.434181,4326
47,80,32,226805.0,MARTINEZ ROSAS,1078,2020-02-21,MARTINEZ ROSAS 1078,-34.599033,-58.449462,4326
39,88,7,325209.0,LA PAMPA,2567,2020-02-21,LA PAMPA 2567,-34.565752,-58.455844,4326
22,16,021A,196099.0,CONSTITUCION,2477,2020-02-21,CONSTITUCION 2477,-34.626079,-58.399887,4326
51,19,37,351308.0,ALTOLAGUIRRE,2140,2020-02-22,ALTOLAGUIRRE 2140,-34.579446,-58.488926,4326
47,87,28,227449.0,"ARENAL, CONCEPCION",4627,2020-02-22,"ARENAL, CONCEPCION 4627",-34.595008,-58.454581,4326
35,81,17,405537.0,AMENABAR,365,2020-02-22,AMENABAR 365,-34.574814,-58.442608,4326
8,33,005E,111043.0,"GARAY, JUAN DE AV.",838,2020-02-22,"GARAY, JUAN DE AV. 838",-34.625550,-58.377557,4326
17,70,020B,171405.0,SARMIENTO,4195,2020-02-22,SARMIENTO 4195,Sin dato,Sin dato,Sin dato
35,40,30,405798.0,"NEWBERY, JORGE",2977,2020-02-22,"NEWBERY, JORGE 2977",-34.576821,-58.445492,4326
48,112D,3,141872.0,MEMBRILLAR,716,2020-02-22,MEMBRILLAR 716,-34.636675,-58.457132,4326
15,12,16,444884.0,CHARCAS,3327,2020-02-22,CHARCAS 3327,-34.591327,-58.412757,4326
39,88,002E,366083.0,"SUCRE, ANTONIO JOSE de, Mcal.",2570,2020-02-22,"SUCRE, ANTONIO JOSE de, Mcal. 2570",-34.564901,-58.456632,4326
47,121,22,226484.0,DARWIN,232,2020-02-22,DARWIN 232,-34.596953,-58.449122,4326
48,105,33,142912.0,RIVERA INDARTE AV.,493,2020-02-22,RIVERA INDARTE AV. 493,-34.634853,-58.460110,4326
47,154,17,225828.0,PADILLA,653,2020-02-22,PADILLA 653,-34.600161,-58.442296,4326
12,19,36,217917.0,"SAENZ PEÑA, LUIS, PRES.",451,2020-02-22,"SAENZ PEÑA, LUIS, PRES. 451",-34.614099,-58.387557,4326
49,181,17,237358.0,CORRIENTES AV.,6731,2020-02-22,CORRIENTES AV. 6731,-34.587711,-58.453034,4326
1,27,009A,220480.0,FLORIDA,229,2020-02-22,FLORIDA 229,-34.605475,-58.375067,4326
35,066D,6,416538.0,CRAMER,305,2020-02-22,CRAMER 305,-34.575666,-58.443403,4326
43,186,8,333969.0,SAN ISIDRO LABRADOR AV.,4453,2020-02-22,SAN ISIDRO LABRADOR AV. 4453,-34.543647,-58.473340,4326
11,026A,001A,442811.0,PUEYRREDON AV.,2396,2020-02-22,PUEYRREDON AV. 2396,-34.586368,-58.395211,4326
12,19,37,217918.0,"SAENZ PEÑA, LUIS, PRES.",443,2020-02-22,"SAENZ PEÑA, LUIS, PRES. 443",-34.614011,-58.387558,4326
47,023B,003A,301101.0,CASAFOUST,658,2020-02-22,CASAFOUST 658,-34.599157,-58.455403,4326
79,104,8,259756.0,"ESCALADA DE SAN MARTIN, R.",3454,2020-02-22,"ESCALADA DE SAN MARTIN, R. 3454",-34.619412,-58.485312,4326
30,53,18,183853.0,HUMBERTO 1°,3165,2020-02-22,HUMBERTO 1° 3165,-34.623587,-58.409777,4326
48,103,014A,147907.0,PEDERNERA,744,2020-02-22,PEDERNERA 744,-34.637421,-58.459472,4326
39,25,004G,376631.0,MENDOZA,3446,2020-02-22,MENDOZA 3446,Sin dato,Sin dato,Sin dato
1,30,009A,220553.0,FLORIDA,589,2020-02-22,FLORIDA 589,-34.601230,-58.375269,4326
57,32,2,132899.0,NEUQUEN,1824,2020-02-22,NEUQUEN 1824,-34.616047,-58.458882,4326
19,100,18,424653.0,DEL SIGNO,4066,2020-02-22,DEL SIGNO 4066,-34.590255,-58.418013,4326
15,129,001M,447527.0,ECUADOR,1452,2020-02-22,ECUADOR 1452,-34.593477,-58.403376,4326
35,035A,23,404759.0,HONDURAS,6049,2020-02-22,HONDURAS 6049,-34.580563,-58.440794,4326
49,115,30,237828.0,TRIUNVIRATO AV.,2976,2020-02-22,TRIUNVIRATO AV. 2976,-34.584795,-58.464548,4326
35,118,23,403819.0,CHARCAS,5231,2020-02-23,CHARCAS 5231,-34.577508,-58.431267,4326
30,43,19,184072.0,24 DE NOVIEMBRE,1470,2020-02-23,24 DE NOVIEMBRE 1470,-34.628224,-58.409966,4326
43,176,018A,332600.0,CIUDAD DE LA PAZ,3802,2020-02-23,CIUDAD DE LA PAZ 3802,-34.547073,-58.470766,4326
37,1,4,406491.0,FOREST AV.,679,2020-02-23,FOREST AV. 679,-34.584352,-58.454609,4326
1,13,12,220905.0,ESMERALDA,455,2020-02-23,ESMERALDA 455,-34.602940,-58.378064,4326
21,53,001A,433156.0,CERVIÑO AV.,4490,2020-02-23,CERVIÑO AV. 4490,-34.576057,-58.420993,4326
43,64,25,334397.0,ARIAS,3411,2020-02-23,ARIAS 3411,-34.545900,-58.483201,4326
15,43,9,444070.0,BILLINGHURST,1361,2020-02-23,BILLINGHURST 1361,-34.594250,-58.413103,4326
37,41,008A,415737.0,ELCANO AV.,3466,2020-02-23,ELCANO AV. 3466,-34.576235,-58.459807,4326
67,060B,24,249829.0,CALFUCURA,2725,2020-02-23,CALFUCURA 2725,-34.608760,-58.480439,4326
7,45,27,451310.0,LIBERTAD,926,2020-02-23,LIBERTAD 926,Sin dato,Sin dato,Sin dato
30,11,026A,185185.0,"GARAY, JUAN DE AV.",3447,2020-02-23,"GARAY, JUAN DE AV. 3447",-34.630770,-58.413850,4326
21,13,7,429360.0,ARAOZ,2637,2020-02-23,ARAOZ 2637,-34.584954,-58.413734,4326
17,82,026B,171093.0,HUMAHUACA,4037,2020-02-23,HUMAHUACA 4037,-34.601812,-58.421356,4326
17,93,27,170613.0,CORRIENTES AV.,3953,2020-02-23,CORRIENTES AV. 3953,-34.603164,-58.420223,4326
27,76,005C,373150.0,ARRIBEÑOS,3366,2020-02-23,ARRIBEÑOS 3366,-34.546980,-58.459153,4326
43,173,16,333242.0,BESARES,2653,2020-02-23,BESARES 2653,-34.545959,-58.473053,4326
30,87,019B,183084.0,"GARAY, JUAN DE AV.",2799,2020-02-23,"GARAY, JUAN DE AV. 2799",-34.628864,-58.403411,4326
45,038A,18,176887.0,PLANES,895,2020-02-23,PLANES 895,-34.610609,-58.445553,4326
1,38,008C,220390.0,SAN MARTIN,579,2020-02-23,SAN MARTIN 579,Sin dato,Sin dato,Sin dato
39,76,004B,325720.0,VIDAL,2025,2020-02-23,VIDAL 2025,-34.564871,-58.459714,4326
19,151,19,426582.0,CHARCAS,3931,2020-02-23,CHARCAS 3931,-34.586633,-58.419091,4326
81,150,23,264115.0,CAMPANA,2710,2020-02-24,CAMPANA 2710,-34.605350,-58.494191,4326
23,50,3,411996.0,"PINO, Virrey del",2134,2020-02-24,"PINO, Virrey del 2134",-34.564829,-58.449309,4326
21,18,25,430680.0,FRAY JUSTO SANTAMARIA DE ORO,2562,2020-02-24,FRAY JUSTO SANTAMARIA DE ORO 2562,-34.578567,-58.423790,4326
65,119,12,134030.0,FRANKLIN,2123,2020-02-24,FRANKLIN 2123,Sin dato,Sin dato,Sin dato
14,47,028A,212357.0,SAN JUAN AV.,1225,2020-02-24,SAN JUAN AV. 1225,-34.622176,-58.383406,4326
1,38,20,220380.0,LAVALLE,421,2020-02-24,LAVALLE 421,Sin dato,Sin dato,Sin dato
15,84,18,443596.0,GALLO,1527,2020-02-24,GALLO 1527,-34.592534,-58.409495,4326
15,84,3,443610.0,GUEMES,2932,2020-02-24,GUEMES 2932,-34.592259,-58.408347,4326
15,121,12,445070.0,LAPRIDA,1763,2020-02-24,LAPRIDA 1763,-34.589673,-58.402300,4326
81,150,28,264110.0,CAMPANA,2774,2020-02-24,CAMPANA 2774,-34.604978,-58.494531,4326
49,43,2,240624.0,CHARLONE,2022,2020-02-24,CHARLONE 2022,-34.580525,-58.469942,4326
19,77,10,426093.0,GASCON,1743,2020-02-24,GASCON 1743,-34.589870,-58.422262,4326
15,72,28,445872.0,PEÑA,2801,2020-02-24,PEÑA 2801,-34.587155,-58.403045,4326
23,100,23,413502.0,SOLDADO DE LA INDEPENDENCIA,1434,2020-02-24,SOLDADO DE LA INDEPENDENCIA 1434,-34.562734,-58.442430,4326
19,150,006D,426207.0,"SCALABRINI ORTIZ, RAUL AV.",2393,2020-02-24,"SCALABRINI ORTIZ, RAUL AV. 2393",-34.586247,-58.417527,4326
15,121,30,445096.0,"ANCHORENA, TOMAS MANUEL DE, DR.",1718,2020-02-24,"ANCHORENA, TOMAS MANUEL DE, DR. 1718",-34.590773,-58.402226,4326
19,170,037A,427437.0,SANTA FE AV.,3952,2020-02-24,SANTA FE AV. 3952,-34.582977,-58.419295,4326
39,76,5,325730.0,ECHEVERRIA,2711,2020-02-24,ECHEVERRIA 2711,-34.564666,-58.458807,4326
81,160,1,263749.0,CUENCA,2418,2020-02-25,CUENCA 2418,-34.607711,-58.490055,4326
21,086A,20,430982.0,DEMARIA,4719,2020-02-25,DEMARIA 4719,-34.573787,-58.423193,4326
65,96,9,135109.0,FRANKLIN,2378,2020-02-25,FRANKLIN 2378,Sin dato,Sin dato,Sin dato
43,184,010A,378267.0,SAN ISIDRO LABRADOR AV.,4217,2020-02-25,SAN ISIDRO LABRADOR AV. 4217,-34.545318,-58.472082,4326
27,93,12,337563.0,QUESADA,1530,2020-02-25,QUESADA 1530,-34.549829,-58.454533,4326
30,94,15,182582.0,CATAMARCA,1114,2020-02-25,CATAMARCA 1114,-34.622918,-58.404229,4326
48,33,35,145365.0,SAN PEDRITO AV.,483,2020-02-25,SAN PEDRITO AV. 483,-34.636410,-58.467213,4326
9,69,31,205351.0,RIOBAMBA,374,2020-02-25,RIOBAMBA 374,-34.604903,-58.393855,4326
33,066B,9,400178.0,CORDOBA AV.,5467,2020-02-25,CORDOBA AV. 5467,-34.588171,-58.439125,4326
27,34,001A,377249.0,O'HIGGINS,2600,2020-02-25,O'HIGGINS 2600,-34.555343,-58.456901,4326
15,65,4,443926.0,ARENALES,3040,2020-02-25,ARENALES 3040,-34.589939,-58.407411,4326
31,37,29,420570.0,LAVALLEJA,678,2020-02-25,LAVALLEJA 678,-34.599634,-58.432526,4326
7,36,2,451942.0,JUNCAL,1422,2020-02-25,JUNCAL 1422,-34.592867,-58.387905,4326
15,104,1,443320.0,LAPRIDA,1398,2020-02-25,LAPRIDA 1398,-34.592708,-58.406317,4326
41,110,20,327971.0,"RIVERA, PEDRO I., Dr.",2815,2020-02-25,"RIVERA, PEDRO I., Dr. 2815",-34.558979,-58.465065,4326
40,129,42,155391.0,SENILLOSA,539,2020-02-25,SENILLOSA 539,-34.622871,-58.429154,4326
20,52,1,200774.0,SARANDI,605,2020-02-25,SARANDI 605,-34.616027,-58.394643,4326
5,74,20,221432.0,"PELLEGRINI, CARLOS",737,2020-02-25,"PELLEGRINI, CARLOS 737",-34.599726,-58.381164,4326
11,35,1,447675.0,"URIBURU JOSE E., Pres.",1396,2020-02-25,"URIBURU JOSE E., Pres. 1396",-34.592150,-58.397223,4326
71,51,23,255808.0,NAZARRE,2835,2020-02-25,NAZARRE 2835,-34.599518,-58.490171,4326
11,53,002A,448227.0,"ALVEAR, MARCELO T. De",2008,2020-02-25,"ALVEAR, MARCELO T. De 2008",-34.597328,-58.396333,4326
17,101,24,170064.0,DIAZ VELEZ AV.,3761,2020-02-25,DIAZ VELEZ AV. 3761,-34.608454,-58.419573,4326
15,66,6,443958.0,BERUTI,3056,2020-02-25,BERUTI 3056,-34.589217,-58.407007,4326
15,26,012B,444506.0,ARENALES,3207,2020-02-25,ARENALES 3207,-34.588616,-58.408942,4326
85,064A,003A,305372.0,"JUSTO, JUAN B. AV.",7525,2020-02-26,"JUSTO, JUAN B. AV. 7525",-34.629749,-58.495372,4326
3,24,024C,452920.0,JUNCAL,917,2020-02-26,JUNCAL 917,-34.592808,-58.380505,4326
1,30,018D,223664.0,LAVALLE,557,2020-02-26,LAVALLE 557,Sin dato,Sin dato,Sin dato
45,89,20,175413.0,"DAVEL, DESIDERIO FERNANDO, DR.",557,2020-02-26,"DAVEL, DESIDERIO FERNANDO, DR. 557",-34.607048,-58.439525,4326
43,63,013B,366337.0,ARIAS,3454,2020-02-26,ARIAS 3454,-34.546133,-58.483472,4326
47,119,1,226433.0,"JUSTO, JUAN B. AV.",2904,2020-02-26,"JUSTO, JUAN B. AV. 2904",-34.597236,-58.447701,4326
7,48,38,451373.0,ARENALES,1201,2020-02-26,ARENALES 1201,-34.594404,-58.384537,4326
15,140,34,442884.0,PUEYRREDON AV.,1734,2020-02-26,PUEYRREDON AV. 1734,Sin dato,Sin dato,Sin dato
17,86,001B,170369.0,"SALGUERO, JERONIMO",88,2020-02-26,"SALGUERO, JERONIMO 88",-34.610040,-58.419933,4326
22,36,15,181080.0,PICHINCHA,938,2020-02-26,PICHINCHA 938,-34.620103,-58.398651,4326
20,71,5,200064.0,MORENO,1838,2020-02-26,MORENO 1838,Sin dato,Sin dato,Sin dato
7,30,025B,452106.0,SANTA FE AV.,1543,2020-02-26,SANTA FE AV. 1543,-34.595695,-58.389027,4326
20,63,9,200376.0,MORENO,1956,2020-02-26,MORENO 1956,Sin dato,Sin dato,Sin dato
23,20,16,411289.0,CABILDO AV.,799,2020-02-26,CABILDO AV. 799,-34.569975,-58.444585,4326
9,33,24,206863.0,SAN LUIS,2447,2020-02-26,SAN LUIS 2447,-34.600118,-58.401765,4326
15,100,17,443158.0,AGUERO,1021,2020-02-26,AGUERO 1021,-34.597797,-58.410229,4326
15,133,039A,441344.0,PUEYRREDON AV.,1188,2020-02-26,PUEYRREDON AV. 1188,Sin dato,Sin dato,Sin dato
15,126,23,441639.0,"MANSILLA, LUCIO NORBERTO, GENERAL",2721,2020-02-26,"MANSILLA, LUCIO NORBERTO, GENERAL 2721",-34.595603,-58.405897,4326
9,11,14,207169.0,RIVADAVIA AV.,2643,2020-02-26,RIVADAVIA AV. 2643,-34.609920,-58.403855,4326
39,86,007F,326597.0,MOLDES,2327,2020-02-26,MOLDES 2327,-34.561608,-58.461172,4326
30,92,26,182671.0,CONSTITUCION,2647,2020-02-26,CONSTITUCION 2647,-34.626446,-58.402265,4326
7,42,038A,451654.0,TALCAHUANO,1296,2020-02-26,TALCAHUANO 1296,-34.592928,-58.386447,4326
4,43,008A,210134.0,BALCARCE,890,2020-02-26,BALCARCE 890,-34.618269,-58.370127,4326
30,84,4,182840.0,"CALVO, CARLOS",2840,2020-02-26,"CALVO, CARLOS 2840",-34.621659,-58.405176,4326
36,79,21,152018.0,AGRELO,3977,2020-02-26,AGRELO 3977,-34.618909,-58.422049,4326
30,52,19,183885.0,24 DE NOVIEMBRE,1180,2020-02-26,24 DE NOVIEMBRE 1180,-34.624428,-58.410347,4326
19,63,7,426038.0,COSTA RICA,4398,2020-02-26,COSTA RICA 4398,-34.590395,-58.423796,4326
30,97,35,182464.0,JUJUY AV.,863,2020-02-26,JUJUY AV. 863,-34.619516,-58.403413,4326
47,94,4,228200.0,GALICIA,134,2020-02-26,GALICIA 134,-34.601758,-58.445065,4326
51,105,15,344623.0,DONADO,2345,2020-02-26,DONADO 2345,-34.570611,-58.476980,4326
3,24,29,450794.0,SUIPACHA,1336,2020-02-26,SUIPACHA 1336,-34.592242,-58.380144,4326
11,83,7,441905.0,GUIDO,1893,2020-02-26,GUIDO 1893,-34.589250,-58.390833,4326
16,18,001A,118714.0,BRASIL,1718,2020-02-26,BRASIL 1718,-34.629129,-58.389563,4326
9,45,017A,207725.0,PASTEUR,335,2020-02-26,PASTEUR 335,-34.605479,-58.399359,4326
30,87,24,183092.0,"GARAY, JUAN DE AV.",2711,2020-02-26,"GARAY, JUAN DE AV. 2711",-34.628779,-58.402659,4326
1,38,10,220388.0,SAN MARTIN,569,2020-02-26,SAN MARTIN 569,Sin dato,Sin dato,Sin dato
11,63,021B,442175.0,GUIDO,1921,2020-02-26,GUIDO 1921,-34.589007,-58.391133,4326
30,52,18,183884.0,24 DE NOVIEMBRE,1170,2020-02-26,24 DE NOVIEMBRE 1170,-34.624358,-58.410354,4326
23,120,20,413062.0,"NEWBERY, JORGE",1527,2020-02-26,"NEWBERY, JORGE 1527",-34.565940,-58.433714,4326
47,185,27,225092.0,"FRIAS, EUSTOQUIO, TTE. GENERAL",268,2020-02-26,"FRIAS, EUSTOQUIO, TTE. GENERAL 268",-34.602523,-58.434955,4326
81,169,026A,266323.0,TINOGASTA,3223,2020-02-26,TINOGASTA 3223,-34.600850,-58.496299,4326
15,147,5,445254.0,GALILEO,2457,2020-02-26,GALILEO 2457,-34.585510,-58.397465,4326
47,033A,14,229302.0,"ESCALADA DE SAN MARTIN, R.",573,2020-02-26,"ESCALADA DE SAN MARTIN, R. 573",-34.601546,-58.452129,4326
30,88,15,183050.0,"LUCA, ESTEBAN de",1476,2020-02-27,"LUCA, ESTEBAN de 1476",-34.627495,-58.403752,4326
27,22,3,337334.0,CUBA,2836,2020-02-27,CUBA 2836,Sin dato,Sin dato,Sin dato
35,40,14,405777.0,MAURE,2950,2020-02-27,MAURE 2950,-34.576164,-58.446256,4326
79,119B,6,258745.0,"DIAZ, CESAR, GRAL.",3384,2020-02-27,"DIAZ, CESAR, GRAL. 3384",-34.617452,-58.484675,4326
23,55,4,412089.0,"HERNANDEZ, JOSE",2184,2020-02-27,"HERNANDEZ, JOSE 2184",-34.564587,-58.451300,4326
47,154,40,225845.0,CAMARGO,688,2020-02-27,CAMARGO 688,-34.599204,-58.441596,4326
19,43,001B,425205.0,EL SALVADOR,4110,2020-02-27,EL SALVADOR 4110,-34.592826,-58.421065,4326
34,10,019A,911334.0,SAENZ AV.,968,2020-02-27,SAENZ AV. 968,Sin dato,Sin dato,Sin dato
41,73,9,327465.0,"RIVERA, PEDRO I., Dr.",3160,2020-02-27,"RIVERA, PEDRO I., Dr. 3160",-34.560854,-58.468204,4326
47,072A,17,228297.0,HIDALGO,1332,2020-02-27,HIDALGO 1332,-34.604749,-58.443177,4326
17,10,11,173449.0,SARMIENTO,4676,2020-02-27,SARMIENTO 4676,Sin dato,Sin dato,Sin dato
19,137,39,426572.0,"SCALABRINI ORTIZ, RAUL AV.",2250,2020-02-27,"SCALABRINI ORTIZ, RAUL AV. 2250",-34.587168,-58.419358,4326
